OTTime,OTCity,OTName,OTIndex,OTReviewCount,OTPrice,OTCuisine,OTLongitude,OTLatitude,OTAddress,OTPhoneNumber,OTMeanRating,OT1,OT2,OT3,OT4,OT5,OTLink,TATime,TACity,TAName,TAReviewCount,TAPrice,TACuisine,TALongitude,TALatitude,TAAddress,TAPhoneNumber,TARanking,TAMeanRating,TA1,TA2,TA3,TA4,TA5,TALink
Thu 03 Mar 2016 01:46:58,LosAngeles,Gaucho Grill - Brentwood,898,308,2,Steakhouse,-118.46718,34.053186,"11754 San Vicente BlvdLos Angeles, CA  90049",8186157555,3.8414,12,25,58,119,95,/gaucho-grill-brentwood,Fri 04 Mar 2016 01:08:51,LosAngeles,Gaucho Grill,35,3,Steakhouse,-118.46768,34.052998,"11754 San Vicente Blvd, Los Angeles, CA 90049-5010 ",3104477898,1035,4.0,1,1,7,14,12,/Restaurant_Review-g32655-d472475-Reviews-Gaucho_Grill-Los_Angeles_California.html
Thu 03 Mar 2016 01:52:44,LosAngeles,La Cava,1222,138,2,Italian,-118.429315,34.147921,"13565 Ventura BlvdSherman Oaks, CA  91423",8189811517,4.1367,2,11,20,39,67,/la-cava,Fri 04 Mar 2016 08:49:08,LosAngeles,La Cava,19,3,Italian,-118.42926,34.14793,"13565 Ventura Blvd, Sherman Oaks, Los Angeles, CA ",8189811517,1490,4.1053,2,1,0,6,10,/Restaurant_Review-g32655-d2458942-Reviews-La_Cava-Los_Angeles_California.html
Thu 03 Mar 2016 01:54:09,LosAngeles,Tanino,2272,686,3,Italian,-118.4453,34.0617,"1043 Westwood Blvd.Los Angeles, CA  90024",3102080444,4.0816,11,52,95,240,288,/tanino,Thu 03 Mar 2016 20:49:48,LosAngeles,Tanino,62,3,Italian,-118.44566,34.06167,"1043 Westwood Blvd, Los Angeles, CA 90024  (Weyburn/ Kinross) ",3102080444,616,4.1613,1,4,7,22,28,/Restaurant_Review-g32655-d379066-Reviews-Tanino-Los_Angeles_California.html
Thu 03 Mar 2016 01:58:54,LosAngeles,Katsuya- Brentwood,1172,847,3,Japanese,-118.468331,34.053517,"11777 San Vicente BlvdBrentwood, CA  90049",3102992058,3.9516,23,71,152,279,322,/katsuya-brentwood,Fri 04 Mar 2016 06:45:31,LosAngeles,Katsuya,88,4,Japanese,-118.46841,34.0535,"11777 San Vicente Blvd, Ste 120, Los Angeles, CA 90049  (Montana) ",13102078744,237,4.2955,2,6,5,26,49,/Restaurant_Review-g32655-d1183554-Reviews-Katsuya-Los_Angeles_California.html
Thu 03 Mar 2016 02:03:48,LosAngeles,Gordon Biersch Brewery Restaurant - Burbank,940,3,2,American,-118.308158,34.180046,"145 S San Fernando BlvdBurbank, CA  91502",8185695240,4.0,0,0,1,1,1,/gordon-biersch-brewery-restaurant-burbank,Fri 25 Mar 2016 19:01:00,Burbank,Gordon Biersch Brewery Restaurant,96,2,American,-118.3081,34.180096,"145 S San Fernando Blvd, Burbank, CA 91502-1322 ",8185695240,8,4.1458,0,3,17,39,37,/Restaurant_Review-g32123-d364930-Reviews-Gordon_Biersch_Brewery_Restaurant-Burbank_California.html
Thu 03 Mar 2016 02:10:42,LosAngeles,"Obica Mozzarella Bar, Pizza e Cucina - Santa Monica",1635,6,2,Italian,-118.491247,34.016704,"606 BroadwaySanta Monica, CA  90401",3103936633,3.8571,0,1,2,1,3,/obica-mozzarella-bar-pizza-e-cucina-santa-monica,Fri 25 Mar 2016 18:41:54,SantaMonica,Obica - Santa Monica,1,NotFound,NotFound,-118.49121,34.01665,"606 Broadway, Santa Monica, CA 90401 ",3103936633,270,5.0,0,0,0,0,1,/Restaurant_Review-g33052-d10061224-Reviews-Obica_Santa_Monica-Santa_Monica_California.html
Thu 03 Mar 2016 02:12:26,LosAngeles,CiaoCristina!,540,1,2,Italian,-118.342494,34.148116,"4201 West Olive Ave.Toluca Lake, CA  91505",8185632426,5.0,0,0,0,0,1,/ciaocristina-toluca-lake,Fri 25 Mar 2016 18:58:22,Burbank,CiaoCristina!,70,2,Italian,-118.34249,34.14811,"4201 W. Olive Ave., Burbank, CA 91505 ",8185632426,19,4.3286,2,2,5,23,38,/Restaurant_Review-g32123-d1874935-Reviews-CiaoCristina-Burbank_California.html
Thu 03 Mar 2016 02:12:47,LosAngeles,Café Med  - WH,403,16,2,Italian,-118.379519,34.092681,"8615 W Sunset BlvdWest Hollywood, CA  90069-2301",3106520445,4.1875,1,1,2,2,10,/cafe-med-wh,Fri 25 Mar 2016 18:57:18,WHolly,Cafe Med,123,3,Italian,-118.37951,34.092632,"8615 W Sunset Blvd, West Hollywood, CA 90069-2301 ",3106520445,40,4.0081,4,6,19,50,44,/Restaurant_Review-g33252-d350475-Reviews-Cafe_Med-West_Hollywood_California.html
Thu 03 Mar 2016 02:15:31,LosAngeles,Goldie's,937,142,2,Californian,-118.374022,34.073,"8422 W. 3rd St.West Hollywood, CA  90048",3236772470,4.175,2,10,26,42,80,/goldies,Thu 03 Mar 2016 06:06:52,LosAngeles,Goldies,14,NotFound,American,-118.37398,34.0731,"8422 West 3rd Street, Los Angeles, CA ",NotFound,1020,4.3571,0,0,2,5,7,/Restaurant_Review-g32655-d4108507-Reviews-Goldies-Los_Angeles_California.html
Thu 03 Mar 2016 02:19:18,LosAngeles,Gaucho's Village,901,159,3,Brazilian,-118.254183,34.147601,"135 N Maryland AveGlendale, CA  91206",8185501430,3.8805,12,14,27,34,72,/gauchos-village,Sat 26 Mar 2016 08:32:12,Glendale,Gaucho's Village,47,3,Brazilian,-118.25419,34.147602,"135 N. Maryland Ave, Glendale, CA 91206  (Lexington) ",18185501430,33,3.9362,2,5,6,15,19,/Restaurant_Review-g32431-d903166-Reviews-Gaucho_s_Village-Glendale_California.html
Thu 03 Mar 2016 02:19:50,LosAngeles,Broken Spanish,345,130,3,Mexican,-118.263665,34.04287,"1050 S Flower StLos Angeles, CA  90015",2137491460,4.0763,5,7,23,34,62,/broken-spanish,Thu 03 Mar 2016 18:30:09,LosAngeles,Rivera,85,4,Spanish,-118.26368,34.043102,"1050 S. Flower St, Los Angeles, CA 90015  (11th ST) ",2137491460,451,4.3647,3,3,5,23,51,/Restaurant_Review-g32655-d1405348-Reviews-Rivera-Los_Angeles_California.html
Thu 03 Mar 2016 02:20:33,LosAngeles,Esterel,791,173,2,ContemporaryFrench/American,-118.378827,34.076385,"8555 Beverly BlvdLos Angeles, CA  90048",3103583979,3.8613,7,22,31,41,72,/esterel,Thu 03 Mar 2016 06:48:55,LosAngeles,Esterel,38,4,French,-118.37748,34.076313,"8555 Beverly Blvd, Los Angeles, CA  (La Cienega Blvd. @ Beverly Blvd.) ",3103583979,874,3.9474,1,1,6,21,9,/Restaurant_Review-g32655-d3749008-Reviews-Esterel-Los_Angeles_California.html
Thu 03 Mar 2016 02:30:09,LosAngeles,Arroyo Chop House,103,1436,4,Steakhouse,-118.147267,34.136531,"536 South Arroyo ParkwayPasadena, CA  91105",6265777463,4.3953,12,61,145,348,871,/arroyo-chop-house,Fri 25 Mar 2016 19:00:50,Pasadena,Arroyo Chop House,170,4,American,-118.14701,34.1366,"536 S Arroyo Pkwy, Pasadena, CA 91105-2520  (California Ave.) ",16265777463,7,4.3765,5,6,13,42,104,/Restaurant_Review-g32859-d343317-Reviews-Arroyo_Chop_House-Pasadena_California.html
Thu 03 Mar 2016 02:31:46,LosAngeles,Caffe Roma,421,102,2,Italian,-118.400219,34.070445,"350 N. Canon Dr.Beverly Hills, CA  90210",3102747834,3.7822,7,9,20,28,37,/caffe-roma,Fri 25 Mar 2016 18:37:08,BHills,Caffe Roma,64,3,Italian,-118.400185,34.070503,"350 N Canon Dr, Ste 13, Beverly Hills, CA 90210-4759  (Brighton Way) ",3102747834,51,4.0312,4,1,9,25,25,/Restaurant_Review-g32070-d485834-Reviews-Caffe_Roma-Beverly_Hills_California.html
Thu 03 Mar 2016 02:40:11,LosAngeles,The Independence,1087,22,2,American,-118.495399,34.01385,"205 BroadwaySanta Monica, CA  90401",3104582500,3.5455,2,2,6,6,6,/the-independence,Fri 25 Mar 2016 19:12:00,SantaMonica,The Independence,195,3,American,-118.49541,34.01366,"205 Broadway, Santa Monica, CA 90401-2311  (2nd Street) ",13104582500,65,4.0714,5,7,27,87,70,/Restaurant_Review-g33052-d1027257-Reviews-The_Independence-Santa_Monica_California.html
Thu 03 Mar 2016 02:40:45,LosAngeles,Ocean Prime - Beverly Hills,1637,272,3,Seafood,-118.402443,34.067528,"9595 Wilshire BlvdBeverly Hills, CA  90212",3108594818,4.2518,9,18,27,61,159,/ocean-prime-beverly-hills,Fri 25 Mar 2016 18:43:05,BHills,Ocean Prime,77,NotFound,American,-118.402565,34.067577,"9595 Wilshire Boulevard, Beverly Hills, CA 90212 ",13108594818,35,4.2597,5,1,8,18,45,/Restaurant_Review-g32070-d7088673-Reviews-Ocean_Prime-Beverly_Hills_California.html
Thu 03 Mar 2016 02:50:19,LosAngeles,The Royce Wood-Fired Steakhouse at the Langham,1996,351,4,Steakhouse,-118.1327,34.1218,"1401 South Oak Knoll Ave.Pasadena, CA  91106",6265856410,4.4074,3,18,42,58,230,/the-royce-wood-fired-steakhouse-at-the-langham,Fri 25 Mar 2016 18:58:38,Pasadena,The Royce at The Langham,142,4,American,-118.13365,34.120335,"1401 South Oak Knoll Avenue, The Langham Huntington, Pasadena, CA 91106 (Formerly The Dining Room at The Langham) (Wentworth) ",16265856410,18,4.331,6,6,12,29,89,/Restaurant_Review-g32859-d507216-Reviews-The_Royce_at_The_Langham-Pasadena_California.html
Thu 03 Mar 2016 02:59:14,LosAngeles,McKay's,1471,186,2,Californian,-118.281362,34.019703,"3540 South Figueroa StLos Angeles, CA  90007",2137434111,3.586,8,24,48,63,43,/mckays,Fri 04 Mar 2016 01:12:00,LosAngeles,McKay's,26,3,Eastern European,-118.28098,34.01957,"3540 South Figueroa St, Los Angeles, CA 90007  (Exposition) ",2137434111,2567,3.5769,1,1,9,12,3,/Restaurant_Review-g32655-d1308440-Reviews-McKay_s-Los_Angeles_California.html
Thu 03 Mar 2016 03:05:08,LosAngeles,Da Pasquale Trattoria Italiana,607,362,3,Italian,-118.408046,34.068096,"9749 Santa Monica Blvd.Beverly Hills, CA  90210",3108593884,4.2624,5,16,47,105,189,/da-pasquale-trattoria-italiana,Fri 25 Mar 2016 18:43:21,BHills,Da Pasquale,141,3,Italian,-118.4083,34.068096,"9749 Santa Monica Blvd, Beverly Hills, CA 90210-4201  (Wilshire Blvd) ",3108593884,13,4.461,0,3,11,45,82,/Restaurant_Review-g32070-d348180-Reviews-Da_Pasquale-Beverly_Hills_California.html
Thu 03 Mar 2016 03:06:54,LosAngeles,Malbec - Santa Monica,1407,246,2,Argentinean,-118.476638,34.036505,"2628 Wilshire Blvd.Santa Monica, CA  90403",3103155457,4.1643,6,15,39,87,133,/ushuaia-argentinean-steakhouse,Fri 25 Mar 2016 19:09:26,SantaMonica,Ushuaia Argentinean Steakhouse,54,3,Steakhouse,-118.47673,34.03659,"2628 Wilshire Blvd, Santa Monica, CA 90403  (East of 26th Street) ",3103155457,85,4.463,0,1,3,20,30,/Restaurant_Review-g33052-d3238700-Reviews-Ushuaia_Argentinean_Steakhouse-Santa_Monica_California.html
Thu 03 Mar 2016 03:11:06,LosAngeles,Nick & Stef’s Steakhouse - Los Angeles,1610,1411,3,Steakhouse,-118.2524,34.053,"330 S. Hope St.Los Angeles, CA  90071",2136800330,4.0437,35,122,193,465,604,/nick-and-stefs-steakhouse-los-angeles,Fri 04 Mar 2016 04:18:02,LosAngeles,Nick & Stef's Steakhouse,106,4,American,-118.25209,34.053345,"330 S Hope St, Los Angeles, CA 90071  (Between 3rd & 4th) ",12136800330,281,4.0472,2,9,13,40,42,/Restaurant_Review-g32655-d364770-Reviews-Nick_Stef_s_Steakhouse-Los_Angeles_California.html
Thu 03 Mar 2016 03:15:34,LosAngeles,Blvd 16 - Hotel Palomar Beverly Hills,290,298,2,American,-118.437604,34.060468,"10740 Wilshire BoulevardLos Angeles, CA  90024",3104747765,3.8963,2,28,66,106,97,/blvd-16-hotel-palomar-beverly-hills,Thu 03 Mar 2016 20:10:20,LosAngeles,BLVD 16,87,2,American,-118.43749,34.0602,"10740 Wilshire Blvd., Suite 101, Los Angeles, CA 90024  (Selby) ",13104747765,583,4.1149,2,4,13,31,37,/Restaurant_Review-g32655-d1312361-Reviews-BLVD_16-Los_Angeles_California.html
Thu 03 Mar 2016 03:23:42,LosAngeles,Hummus Bar & Grill,1063,163,2,Mediterranean,-118.542277,34.17132,"18743 Ventura Blvd.Tarzana, CA  91356",8183446606,4.1455,1,10,19,69,66,/hummus-bar-and-grill,Thu 03 Mar 2016 13:05:03,LosAngeles,The Hummus Bar & Grill,46,2,Mediterranean,-118.54155,34.17171,"18743 Ventura Boulevard, Los Angeles, CA 91356  (Burbank Blvd.) ",18183446606,345,4.3261,1,1,2,20,22,/Restaurant_Review-g32655-d1047440-Reviews-The_Hummus_Bar_Grill-Los_Angeles_California.html
Thu 03 Mar 2016 03:23:58,LosAngeles,Max's Restaurant - Cuisine of the Philippines,1468,6,2,Filipino,-118.258664,34.147091,"313 W BroadwayGlendale, CA  91204",8186377751,4.1667,0,0,2,1,3,/maxs-restaurant-cuisine-of-the-philippines-glendale,Sat 26 Mar 2016 08:10:18,Glendale,Max's of Manila,52,NotFound,Asian,-118.258606,34.147102,"313 W Broadway, Glendale, CA 91204-1301 ",8186377751,26,4.0,0,5,6,25,16,/Restaurant_Review-g32431-d376303-Reviews-Max_s_of_Manila-Glendale_California.html
Thu 03 Mar 2016 03:28:38,LosAngeles,Red Room Food and Wine Bar,1922,80,2,ContemporaryAmerican,-118.514044,34.161641,"17499 Ventura Blvd.Encino, CA  91316",8183860278,4.1375,2,5,6,34,33,/red-room-food-and-wine-bar,Fri 04 Mar 2016 10:44:11,LosAngeles,Red Room Food and Wine Bar,5,NotFound,Wine Bar,-118.51398,34.161835,"17499 Ventura Blvd., Los Angeles, CA ",8183860278,1597,4.2,0,0,0,4,1,/Restaurant_Review-g32655-d4765512-Reviews-Red_Room_Food_and_Wine_Bar-Los_Angeles_California.html
Thu 03 Mar 2016 03:30:18,LosAngeles,Il Cielo Gardens Restaurant & Bar,1074,959,3,Italian,-118.388304,34.072071,"9018 Burton WayBeverly Hills, CA  90211",3102769990,4.3108,20,45,102,244,551,/il-cielo-gardens-restaurant-and-bar,Fri 25 Mar 2016 18:39:09,BHills,Il Cielo,166,4,Italian,-118.38838,34.071934,"9018 Burton Way, Beverly Hills, CA 90211-1618  (Doheny Drive) ",3102769990,11,4.512,0,3,16,40,107,/Restaurant_Review-g32070-d348156-Reviews-Il_Cielo-Beverly_Hills_California.html
Thu 03 Mar 2016 03:32:09,LosAngeles,Cafe Fiore - Woodland Hills,395,286,2,Italian,-118.599826,34.178906,"21550 Oxnard St., Ste 125Woodland Hills, CA  91364",8188884514,3.9231,9,23,56,91,107,/cafe-fiore-woodland-hills,Fri 04 Mar 2016 00:23:12,LosAngeles,Cafe Fiore,15,3,Italian,-118.59959,34.17918,"21550 Oxnard St., Ste 125, Los Angeles, CA 91364 ",8188884514,1233,4.1333,0,1,2,6,6,/Restaurant_Review-g32655-d3640338-Reviews-Cafe_Fiore-Los_Angeles_California.html
Thu 03 Mar 2016 03:34:15,LosAngeles,Chi Dynasty,520,1,2,Chinese,-118.287904,34.104201,"1813 Hillhurst AveLos Angeles, CA  90027",3236673388,5.0,0,0,0,0,1,/chi-dynasty,Fri 04 Mar 2016 02:36:05,LosAngeles,Chi Dynasty,27,3,Chinese,-118.2879,34.104202,"1813 Hillhurst Ave, Los Angeles, CA 90027 ",3236673388,2768,4.0,2,1,5,6,13,/Restaurant_Review-g32655-d338902-Reviews-Chi_Dynasty-Los_Angeles_California.html
Thu 03 Mar 2016 03:34:48,LosAngeles,Home Restaurant - Los Feliz,1040,127,2,American,-118.28718,34.102947,"1760 Hillhurst AvenueLos Angeles, CA  90039",3236690211,4.3516,3,6,8,37,74,/home-restaurant-los-feliz,Fri 04 Mar 2016 04:12:21,LosAngeles,Home Restaurant,84,3,American,-118.28719,34.10296,"1760 Hillhurst Ave, Los Angeles, CA 90027-4443 ",3236690211,338,4.0952,2,3,14,31,34,/Restaurant_Review-g32655-d364778-Reviews-Home_Restaurant-Los_Angeles_California.html
Thu 03 Mar 2016 03:37:08,LosAngeles,Hedley's Restaurant,1015,60,2,American,-118.38538,34.08198,"640 N. Robertson BlvdWest Hollywood, CA  90069",3106592009,4.2833,0,4,5,21,30,/hedleys-restaurant,Fri 04 Mar 2016 07:07:58,LosAngeles,Hedley's,10,2,American,-118.38551,34.081978,"640 N Robertson Blvd, Los Angeles, CA 90069  (Santa Monica Blvd.) ",3106592009,2611,3.9,2,0,1,1,6,/Restaurant_Review-g32655-d350133-Reviews-Hedley_s-Los_Angeles_California.html
Thu 03 Mar 2016 03:39:38,LosAngeles,Kabuki Japanese Restaurant - Howard Hughes Center,1152,18,2,Japanese,-118.391949,33.978034,"6081 Center DrSuite 203Los Angeles, CA  90045",3106415524,4.2778,0,1,3,4,10,/kabuki-japanese-restaurant-howard-hughes-center,Thu 03 Mar 2016 02:09:26,LosAngeles,Kabuki Japanese Restaurant,52,2,Japanese,-118.39287,33.97807,"6081 Center Dr #203, Los Angeles, CA 90045 ",3106415524,455,4.1346,2,3,4,20,23,/Restaurant_Review-g32655-d349675-Reviews-Kabuki_Japanese_Restaurant-Los_Angeles_California.html
Thu 03 Mar 2016 03:44:44,LosAngeles,Wilshire,2468,1052,3,Californian,-118.478829,34.034903,"2454 Wilshire BoulevardSanta Monica, CA  90404",3105861707,3.9352,28,88,197,380,387,/wilshire,Fri 25 Mar 2016 18:35:07,SantaMonica,Wilshire Restaurant,80,2,NotFound,-118.47846,34.034985,"2454 Wilshire Blvd, Santa Monica, CA 90403 ",3105861707,130,3.95,3,2,22,22,31,/Restaurant_Review-g33052-d897033-Reviews-Wilshire_Restaurant-Santa_Monica_California.html
Thu 03 Mar 2016 03:45:19,LosAngeles,2117,12,143,2,Fusion/Eclectic,-118.44204,34.039058,"2117 Sawtelle Blvd.Los Angeles, CA  90025",3104771617,3.9231,1,16,25,52,49,/2117,Fri 04 Mar 2016 05:25:16,LosAngeles,Restaurant 2117,25,3,Asian,-118.44246,34.039032,"2117 Sawtelle Blvd, Los Angeles, CA 90025-6200  (Olympic) ",3104771617,1274,4.2,1,1,3,7,13,/Restaurant_Review-g32655-d379068-Reviews-Restaurant_2117-Los_Angeles_California.html
Thu 03 Mar 2016 03:45:42,LosAngeles,Don Chente Bar-Grill & Lounge,657,7,2,Mexican,-118.267227,34.04092,"1248 South Figueroa StreetLos Angeles, CA  90015",2138144865,2.4286,2,2,2,0,1,/don-chente-bar-grill-and-lounge,Fri 04 Mar 2016 09:40:20,LosAngeles,Don Chente,NotFound,NotFound,NotFound,-118.26723,34.04092,"1248 South Figueroa Street, Los Angeles, CA 90015 ",NotFound,6913,NotFound,NotFound,NotFound,NotFound,NotFound,NotFound,/Restaurant_Review-g32655-d7997732-Reviews-Don_Chente-Los_Angeles_California.html
Thu 03 Mar 2016 03:47:32,LosAngeles,Barrel Down,184,4,2,American,-118.256148,34.047229,"525 West Seventh St.Los Angeles, CA  90014",2132328657,3.0,1,1,0,1,1,/barrel-down,Thu 03 Mar 2016 10:20:36,LosAngeles,Barrel Down,2,NotFound,NotFound,-118.25615,34.04723,"525 West 7th Street, Los Angeles, CA 90014 ",NotFound,4481,3.5,0,0,1,1,0,/Restaurant_Review-g32655-d8431347-Reviews-Barrel_Down-Los_Angeles_California.html
Thu 03 Mar 2016 03:49:01,LosAngeles,Racion,1890,53,3,Spanish,-118.153044,34.144733,"119 W Green StPasadena, CA  91105",6263963090,3.875,6,6,12,24,32,/racion-pasadena,Fri 25 Mar 2016 18:58:55,Pasadena,Racion,58,NotFound,Spanish,-118.153046,34.14485,"119 West Green Street, Pasadena, CA ",6263963090,63,4.1552,1,1,12,18,26,/Restaurant_Review-g32859-d3229726-Reviews-Racion-Pasadena_California.html
Thu 03 Mar 2016 03:57:32,LosAngeles,Drago Centro,669,2021,2,Italian,-118.256939,34.051541,"525 S. Flower St., Suite 120Los Angeles, CA  90071",2132288998,4.102,44,142,297,636,921,/drago-centro,Fri 04 Mar 2016 11:16:11,LosAngeles,Drago Centro,175,4,Italian,-118.25753,34.050858,"525 S. Flower St., Suite 120, Los Angeles, CA 90071  (Bet. 5 & 6 street) ",2132288998,82,4.1543,5,4,22,72,72,/Restaurant_Review-g32655-d1312378-Reviews-Drago_Centro-Los_Angeles_California.html
Thu 03 Mar 2016 03:59:40,LosAngeles,Petrossian Paris Boutique & Restaurant,1801,375,2,French,-118.383953,34.077762,"321 N. Robertson Blvd.West Hollywood, CA  90048",3102716300,4.5093,3,12,22,92,246,/petrossian-paris-boutique-and-restaurant,Fri 25 Mar 2016 18:47:47,WHolly,Petrossian Paris Boutique & Cafe,43,NotFound,French,-118.38399,34.07783,"321 N. Robertson Blvd., West Hollywood, CA 90048  (Beverly Blvd. & Robertson Blvd.) ",3102710576,73,4.2093,1,1,6,15,20,/Restaurant_Review-g33252-d502731-Reviews-Petrossian_Paris_Boutique_Cafe-West_Hollywood_California.html
Thu 03 Mar 2016 04:02:27,LosAngeles,The Ivy,1106,1521,4,Californian,-118.383891,34.07567,"113 N Robertson BlvdWest Hollywood, CA  90048",3102748303,4.236,47,99,167,343,865,/the-ivy,Thu 03 Mar 2016 10:36:46,LosAngeles,The Ivy,1141,4,American,-118.384155,34.075706,"113 N Robertson Blvd, Los Angeles, CA 90048-3101  (Alden Dr.) ",3102748303,16,4.099,56,66,137,332,550,/Restaurant_Review-g32655-d348150-Reviews-The_Ivy-Los_Angeles_California.html
Thu 03 Mar 2016 04:15:36,LosAngeles,Border Grill - Santa Monica,311,1220,2,Mexican,-118.4944,34.0158,"1445 4th St.Santa Monica, CA  90401",3104511655,3.7052,51,158,246,411,355,/border-grill-santa-monica,Fri 25 Mar 2016 18:59:43,SantaMonica,Border Grill,252,3,Mexican,-118.49392,34.015686,"1445 4th St, Santa Monica, CA 90401-2308 ",3104511655,80,3.8379,10,21,52,87,83,/Restaurant_Review-g33052-d350247-Reviews-Border_Grill-Santa_Monica_California.html
Thu 03 Mar 2016 04:29:12,LosAngeles,Baltaire,157,189,4,Steakhouse,-118.463998,34.054302,"11647 San Vicente BlvdLos Angeles, CA  90049",4242731660,4.0745,7,12,28,54,87,/baltaire,Fri 04 Mar 2016 09:18:59,LosAngeles,Baltaire,57,NotFound,American,-118.464,34.054302,"11647 San Vicente Blvd, Los Angeles, CA 90049 ",14242731660,328,4.0526,3,2,8,20,24,/Restaurant_Review-g32655-d7717278-Reviews-Baltaire-Los_Angeles_California.html
Thu 03 Mar 2016 04:35:59,LosAngeles,Cities Restaurant,548,9,2,Fusion/Eclectic,-118.168767,34.040369,"4512 E Cesar E Chavez AveLos Angeles, CA  90022-1117",3235264555,3.7778,0,2,1,3,3,/cities-restaurant,Fri 04 Mar 2016 10:24:08,LosAngeles,Cities Restaurant,5,NotFound,American,-118.16877,34.040367,"4512 East Cesar E Chavez Avenue, 90022, Los Angeles, CA ",NotFound,3477,4.0,0,1,1,0,3,/Restaurant_Review-g32655-d4093118-Reviews-Cities_Restaurant-Los_Angeles_California.html
Thu 03 Mar 2016 04:47:54,LosAngeles,M Street Kitchen,1388,753,2,Californian,-118.488909,34.007156,"2000 N. Main StSanta Monica, CA  90405",3103969145,3.8088,14,84,145,299,211,/m-street-kitchen,Fri 25 Mar 2016 18:41:09,SantaMonica,M Street Kitchen,295,3,American,-118.48829,34.00643,"2000 Main St., Santa Monica, CA  (Bicknell) ",3103969145,15,4.2915,4,8,24,121,138,/Restaurant_Review-g33052-d2267642-Reviews-M_Street_Kitchen-Santa_Monica_California.html
Thu 03 Mar 2016 04:49:35,LosAngeles,Kabuki Japanese Restaurant - Hollywood,1151,85,2,Japanese,-118.326685,34.098974,"1545 N Vine StreetHollywood, CA  90028",3234646003,3.9059,2,4,20,33,26,/kabuki-japanese-restaurant-hollywood,Fri 04 Mar 2016 06:33:49,LosAngeles,Kabuki - Hollywood,39,3,Japanese,-118.32665,34.098885,"1545 Vine Street, Los Angeles, CA 90028  (Between Selma Ave & West Sunset) ",3234646003,766,4.1795,1,0,6,16,16,/Restaurant_Review-g32655-d850516-Reviews-Kabuki_Hollywood-Los_Angeles_California.html
Thu 03 Mar 2016 04:52:36,LosAngeles,Toscana,2353,146,4,Italian,-118.46323,34.05431,"11633 San Vicente BlvdLos Angeles, CA  90049",3108202448,4.1655,4,11,16,40,74,/toscana,Fri 04 Mar 2016 05:33:03,LosAngeles,Toscana,44,4,Italian,-118.46323,34.054,"11633 San Vicente Blvd, Los Angeles, CA 90049-6511  (Darlington Avenue) ",3108202448,327,4.3636,0,2,6,10,26,/Restaurant_Review-g32655-d348063-Reviews-Toscana-Los_Angeles_California.html
Thu 03 Mar 2016 04:54:16,LosAngeles,The Briks,338,69,2,"Global,International",-118.26353,34.042397,"1111 S. Hope St #110Los Angeles, CA  90015",2137467766,4.2319,2,4,5,23,35,/the-briks-los-angeles,Thu 03 Mar 2016 19:40:24,LosAngeles,The Briks,12,NotFound,NotFound,-118.26371,34.042095,"1111 S. Hope Street, Los Angeles, CA 90015 ",213.746.7766,2571,3.8333,1,1,1,5,4,/Restaurant_Review-g32655-d8483384-Reviews-The_Briks-Los_Angeles_California.html
Thu 03 Mar 2016 04:59:18,LosAngeles,Perch LA,1797,1936,3,FrenchAmerican,-118.251342,34.048824,"448 S. Hill St. 13th floorLos Angeles, CA  90013",2138021770,4.0748,73,138,281,526,921,/perch-la,Thu 03 Mar 2016 18:16:03,LosAngeles,Perch,353,4,French,-118.25144,34.048813,"448 S. Hill Street, 13th Floor roof deck, Los Angeles, CA  (5th Street) ",2138021770,17,4.3173,7,8,34,121,183,/Restaurant_Review-g32655-d2241406-Reviews-Perch-Los_Angeles_California.html
Thu 03 Mar 2016 05:00:41,LosAngeles,Bank of Venice,161,1,2,Organic,-118.472303,33.987415,"80 Windward AveVenice, CA  90291",3109941110,5.0,0,0,0,0,1,/bank-of-venice,Thu 03 Mar 2016 13:12:11,LosAngeles,Bank of Venice,40,NotFound,Pub,-118.47243,33.98762,"80 Windward Ave, Los Angeles, CA 90291 ",3104505222,555,4.15,2,0,3,20,15,/Restaurant_Review-g32655-d5107301-Reviews-Bank_of_Venice-Los_Angeles_California.html
Thu 03 Mar 2016 05:04:22,LosAngeles,Ports O Call,1853,394,2,Seafood,-118.276392,33.732057,"Berth 76San Pedro, CA  90731",3108333553,4.0425,16,27,52,134,171,/ports-o-call,Fri 04 Mar 2016 05:15:43,LosAngeles,Ports O'Call Waterfront Dining,60,3,American,-118.27596,33.731808,"1200 Nagoya Way, Los Angeles, CA 90731  (Harbor Blvd) ",13108333553,1266,3.7667,4,6,6,28,16,/Restaurant_Review-g32655-d2395392-Reviews-Ports_O_Call_Waterfront_Dining-Los_Angeles_California.html
Thu 03 Mar 2016 05:05:48,LosAngeles,The Hungry Cat - Hollywood,1064,639,2,Seafood,-118.326683,34.098621,"1535 VineHollywood, CA  90028",3234622155,4.0219,12,54,99,217,257,/the-hungry-cat-hollywood,Fri 04 Mar 2016 08:31:05,LosAngeles,Hungry Cat,87,4,American,-118.32694,34.09859,"1535 N Vine St, Los Angeles, CA 90028  (Sunset) ",3234622155,302,4.1954,2,4,9,32,40,/Restaurant_Review-g32655-d754495-Reviews-Hungry_Cat-Los_Angeles_California.html
Thu 03 Mar 2016 05:06:37,LosAngeles,Della Terra,627,325,2,Italian,-118.357174,34.076149,"7675 Beverly BlvdLos Angeles, CA  90036",3239337675,4.1662,6,20,36,115,148,/della-terra,Fri 04 Mar 2016 06:27:30,LosAngeles,Della Terra,32,3,Italian,-118.35725,34.076344,"7675 Beverly Blvd, Los Angeles, CA 90036-2727  (Spaulding) ",3239337675,495,4.3438,0,1,4,10,17,/Restaurant_Review-g32655-d1628051-Reviews-Della_Terra-Los_Angeles_California.html
Thu 03 Mar 2016 05:07:26,LosAngeles,"Opaque - Dining in the Dark, LA",1686,338,4,American,-118.482442,34.031732,"2020 Wilshire BlvdSanta Monica, CA  90403",3105467619,3.8968,17,30,60,96,136,/opaque-dining-in-the-dark-la,Fri 25 Mar 2016 18:53:07,SantaMonica,Opaque,8,4,American,-118.48253,34.03192,"2020 Wilshire Blvd, Santa Monica, CA 90403  (20th) ",3105467619,336,4.125,0,1,1,2,4,/Restaurant_Review-g33052-d1973416-Reviews-Opaque-Santa_Monica_California.html
Thu 03 Mar 2016 05:07:49,LosAngeles,Terroni - Beverly,2306,125,2,Italian,-118.355392,34.076275,"7605 Beverly BlvdLos Angeles, CA  90036",3239540300,4.0688,1,14,21,61,63,/terroni-beverly,Thu 03 Mar 2016 21:10:47,LosAngeles,Terroni,129,3,Italian,-118.355515,34.076378,"7605 Beverly Blvd, Los Angeles, CA 90036  (Curson) ",3239540300,319,3.9767,7,7,14,55,46,/Restaurant_Review-g32655-d833533-Reviews-Terroni-Los_Angeles_California.html
Thu 03 Mar 2016 05:12:19,LosAngeles,The Little Door,1316,1216,3,French,-118.367456,34.072231,"8164 West 3rd StreetLos Angeles, CA  90048",3239511210,4.3427,19,50,119,334,692,/the-little-door,Thu 03 Mar 2016 18:56:36,LosAngeles,The Little Door,170,4,French,-118.36728,34.0722,"8164 West 3rd Street, Los Angeles, CA 90048  (1 block west of Crescent Heights at La Jolla) ",13239511210,161,4.2222,14,4,10,45,98,/Restaurant_Review-g32655-d3572415-Reviews-The_Little_Door-Los_Angeles_California.html
Thu 03 Mar 2016 05:14:43,LosAngeles,Il Fornaio - Pasadena,1077,1333,2,Italian,-118.151171,34.146545,"24 West Union StreetPasadena, CA  91103",6266839797,3.7935,56,145,258,432,441,/il-fornaio-pasadena,Fri 25 Mar 2016 19:03:25,Pasadena,Il Fornaio,148,3,Italian,-118.151184,34.14657,"24 West Union Street, Pasadena, CA 91103  (Fair Oaks Blvd.) ",6266839797,29,3.8378,6,12,27,58,45,/Restaurant_Review-g32859-d343314-Reviews-Il_Fornaio-Pasadena_California.html
Thu 03 Mar 2016 05:15:29,LosAngeles,La Scala - Beverly Hills,1250,85,3,Italian,-118.401546,34.071304,"434 N. Cañon Dr.Beverly Hills, CA  90210",3102750579,3.825,8,6,30,31,45,/la-scala-beverly-hills,Fri 25 Mar 2016 18:48:06,BHills,La Scala,73,NotFound,Italian,-118.40161,34.071377,"434 N Canon Dr, Beverly Hills, CA 90210 ",3102750579,73,3.726,6,6,10,31,20,/Restaurant_Review-g32070-d468377-Reviews-La_Scala-Beverly_Hills_California.html
Thu 03 Mar 2016 05:18:55,LosAngeles,Checkers Downtown,499,324,3,Californian,-118.25452,34.049716,"535 South Grand Ave.Los Angeles, CA  90071",2138910519,3.7068,18,36,65,109,96,/checkers-downtown,Fri 04 Mar 2016 01:04:04,LosAngeles,Checkers Downtown,51,4,French,-118.25493,34.049526,"535 S Grand Ave, Los Angeles, CA 90071  (5th Street and Grand Ave) ",2138910519,504,4.1373,1,2,5,24,19,/Restaurant_Review-g32655-d481357-Reviews-Checkers_Downtown-Los_Angeles_California.html
Thu 03 Mar 2016 05:23:45,LosAngeles,DISTRICT,646,15,2,Californian,-118.25833,34.047805,"711 S Hope StLos Angeles, CA  90017",2134883500,3.8,2,1,0,7,5,/district-los-angeles,Thu 03 Mar 2016 15:47:46,LosAngeles,The District Restaurant,6,NotFound,American,-118.25847,34.047874,"711 S Hope Street, The Bloc, Los Angeles, CA 90017 ",12134883500,2617,3.8333,0,0,2,3,1,/Restaurant_Review-g32655-d8368324-Reviews-The_District_Restaurant-Los_Angeles_California.html
Thu 03 Mar 2016 05:26:50,LosAngeles,Buca di Beppo - Encino,353,385,2,Italian,-118.514451,34.161038,"17500 Ventura BoulevardEncino, CA  91316",8189953288,3.9013,14,36,69,121,145,/buca-di-beppo-encino,Thu 03 Mar 2016 06:53:43,LosAngeles,Buca di Beppo,23,2,Italian,-118.514496,34.16135,"17500 Ventura Blvd, Encino, Los Angeles, CA 91316  (Encino Avenue) ",18189953288,1637,3.6522,1,3,5,8,6,/Restaurant_Review-g32655-d348823-Reviews-Buca_di_Beppo-Los_Angeles_California.html
Thu 03 Mar 2016 05:32:49,LosAngeles,Ruth's Chris Steak House - Beverly Hills,2005,967,3,Steakhouse,-118.399,34.0642,"224 South Beverly DriveBeverly Hills, CA  90212",3108598744,4.2479,15,56,107,286,504,/ruths-chris-steak-house-beverly-hills,Fri 25 Mar 2016 18:43:48,BHills,Ruth's Chris Steak House,128,4,American,-118.39889,34.064053,"224 South Beverly Drive, Beverly Hills, CA 90212 ",3108598744,27,4.25,1,5,14,49,59,/Restaurant_Review-g32070-d348045-Reviews-Ruth_s_Chris_Steak_House-Beverly_Hills_California.html
Thu 03 Mar 2016 05:33:34,LosAngeles,Tivoli Cafe,2332,8,2,Italian,-118.52599,34.047512,"15306 W. Sunset blvd.Pacific Palisades, CA  90272",3104597685,4.875,0,0,0,1,7,/tivoli-cafe,Fri 04 Mar 2016 10:12:34,LosAngeles,Tivoli Cafe,7,NotFound,Italian,-118.526054,34.04746,"15306 West Sunset Boulevard, Los Angeles, CA 90272 ",3104597685,3200,3.5714,1,0,0,6,0,/Restaurant_Review-g32655-d806373-Reviews-Tivoli_Cafe-Los_Angeles_California.html
Thu 03 Mar 2016 05:39:07,LosAngeles,Cecconi's,474,1133,2,Italian,-118.38496,34.080566,"8764 Melrose AvenueWest Hollywood, CA  90069",3104322000,3.933,35,121,169,369,440,/cecconis-west-hollywood,Thu 03 Mar 2016 15:18:48,LosAngeles,Cecconi's,244,4,Italian,-118.38509,34.08051,"8764 Melrose Avenue, Los Angeles, CA 90069  (Robertson) ",3104322000,67,4.1598,6,11,24,100,103,/Restaurant_Review-g32655-d1533697-Reviews-Cecconi_s-Los_Angeles_California.html
Thu 03 Mar 2016 05:47:20,LosAngeles,Roy's Pasadena,1997,908,3,Seafood,-118.137108,34.145861,"641 E. Colorado Blvd.Pasadena, CA  91101",6263564066,4.2275,17,61,99,254,479,/roys-pasadena,Fri 25 Mar 2016 19:06:28,Pasadena,Roy's Pasadena,197,2,Japanese,-118.13709,34.146103,"641 East Colorado Boulevard, Pasadena, CA 91101  (North El Molino Avenue) ",16263564066,11,4.3503,4,6,19,56,112,/Restaurant_Review-g32859-d1188471-Reviews-Roy_s_Pasadena-Pasadena_California.html
Thu 03 Mar 2016 05:48:28,LosAngeles,Cavatina at Sunset Marquis,472,365,3,Californian,-118.377336,34.092197,"1200 Alta Loma RoadWest Hollywood, CA  90069",3103583759,4.283,4,26,39,89,206,/cavatina-at-sunset-marquis,Fri 25 Mar 2016 18:49:47,WHolly,Cavatina,60,4,American,-118.3775,34.092205,"1200 Alta Loma Road, Sunset Marquis, West Hollywood, CA 90069  (Holloway) ",310.358.3759,36,4.4667,0,2,2,22,34,/Restaurant_Review-g33252-d1420399-Reviews-Cavatina-West_Hollywood_California.html
Thu 03 Mar 2016 05:50:43,LosAngeles,Utopia Restaurant,2396,12,2,Californian,-118.186643,33.76829,"445 E 1st StLong Beach, CA  90802",5624326888,4.3333,0,0,2,4,6,/utopia-restaurant-long-beach,Sat 26 Mar 2016 08:59:30,LongBeach,Utopia,125,2,Steakhouse,-118.1866,33.768257,"445 East 1st, Long Beach, CA 90802 ",15624326888,14,4.48,0,5,9,32,79,/Restaurant_Review-g32648-d504403-Reviews-Utopia-Long_Beach_California.html
Thu 03 Mar 2016 05:51:06,LosAngeles,Mama Shelter,1413,28,2,ContemporaryAmerican,-118.331039,34.099748,"6500 Selma AvenueLos Angeles, CA  90028",3237856600,4.25,1,1,2,10,14,/mama-shelter,Fri 04 Mar 2016 09:15:36,LosAngeles,Mama Shelter Los Angeles Restaurant,15,NotFound,French,-118.33105,34.09975,"6500 Selma Avenue, Los Angeles, CA ",NotFound,517,4.5625,0,0,1,5,10,/Restaurant_Review-g32655-d7648243-Reviews-Mama_Shelter_Los_Angeles_Restaurant-Los_Angeles_California.html
Thu 03 Mar 2016 06:01:53,LosAngeles,Maison Giraud,1403,260,2,French,-118.524847,34.048144,"1032 Swarthmore Ave.Pacific Palisades, CA  90272",3104597561,4.1533,3,19,40,72,127,/maison-giraud,Thu 03 Mar 2016 01:56:30,LosAngeles,Maison Giraud,36,3,French,-118.52484,34.0479,"1032 Swarthmore Ave, Pacific Palisades, Los Angeles, CA  (Sunset Boulevard) ",NotFound,1088,3.9444,3,2,1,18,12,/Restaurant_Review-g32655-d2433345-Reviews-Maison_Giraud-Los_Angeles_California.html
Thu 03 Mar 2016 06:09:40,LosAngeles,eLOVate Vegan Kitchen & Juicery,773,10,3,Vegan,-118.491419,34.010674,"1705 Ocean BlvdSuite 111Santa Monica, CA  90401",4242728700,4.8,0,0,0,2,8,/elovate-vegan-kitchen-and-juicery,Fri 25 Mar 2016 19:11:58,SantaMonica,Elovate,7,NotFound,NotFound,-118.49254,34.009598,"1705 Ocean Avenue, Suite 111, Santa Monica, CA 90401 ",4242728700,138,4.8571,0,0,0,1,6,/Restaurant_Review-g33052-d9598221-Reviews-Elovate-Santa_Monica_California.html
Thu 03 Mar 2016 06:11:49,LosAngeles,Capo,441,448,3,Italian,-118.49105,34.007866,"1810 Ocean Ave.Santa Monica, CA  90401",3103945550,4.2049,5,31,67,110,236,/capo,Fri 25 Mar 2016 18:54:07,SantaMonica,Capo,109,4,Italian,-118.491196,34.008007,"1810 Ocean Ave, Santa Monica, CA 90401-3216  (Pico) ",3103945550,92,4.2752,3,6,14,21,65,/Restaurant_Review-g33052-d350243-Reviews-Capo-Santa_Monica_California.html
Thu 03 Mar 2016 06:12:59,LosAngeles,Mistral - Sherman Oaks,1546,435,3,French,-118.425737,34.146792,"13422 Ventura Blvd.Sherman Oaks, CA  91423",8189816650,4.4573,4,16,38,95,280,/mistral-sherman-oaks,Fri 04 Mar 2016 05:04:15,LosAngeles,Mistral,47,4,French,-118.42574,34.14687,"13422 Ventura Blvd, Los Angeles, CA 91423  (Dixie Canyon) ",8189816650,489,4.4468,0,0,5,16,26,/Restaurant_Review-g32655-d468796-Reviews-Mistral-Los_Angeles_California.html
Thu 03 Mar 2016 06:13:47,LosAngeles,Hot Pot Galaxy,1050,3,2,Chinese,-118.242179,34.0501,"123 Astronaut e s Onizukast #202Los Angeles, CA  90012",2136200588,2.6667,0,2,0,1,0,/hot-pot-galaxy,Thu 03 Mar 2016 06:55:16,LosAngeles,Hot Pot Galaxy,1,NotFound,NotFound,-118.24193,34.050163,"123 Astronaut Ellison S Onizuka St, Unit 202, Los Angeles, CA 90012 ",2136200588,2197,5.0,0,0,0,0,1,/Restaurant_Review-g32655-d9764432-Reviews-Hot_Pot_Galaxy-Los_Angeles_California.html
Thu 03 Mar 2016 06:15:59,LosAngeles,Finn McCools,822,15,2,GastroPub,-118.482547,34.000775,"2702 Main StreetSanta Monica, CA  90404",3104521734,4.4,0,0,2,5,8,/finn-mccools,Fri 25 Mar 2016 18:56:51,SantaMonica,Finn McCool's,59,2,Pub,-118.482666,34.000744,"2702 Main St, Santa Monica, CA 90405 ",13104521734,127,3.9153,2,2,12,26,17,/Restaurant_Review-g33052-d1082166-Reviews-Finn_McCool_s-Santa_Monica_California.html
Thu 03 Mar 2016 06:18:48,LosAngeles,Hutchinson Cocktails & Grill,1066,59,3,Steakhouse,-118.37609,34.086158,"826 N La Cienega BlvdWest Hollywood, CA  90069",3103600884,4.1552,3,4,9,7,35,/hutchinson-cocktails-and-grill,Thu 03 Mar 2016 16:32:55,LosAngeles,Hutchinson Cocktails & Grill,10,NotFound,Asian,-118.37609,34.08616,"826 N. La Cienega Blvd, Los Angeles, CA 90069 ",3103600884,1338,4.4,0,0,3,0,7,/Restaurant_Review-g32655-d7210670-Reviews-Hutchinson_Cocktails_Grill-Los_Angeles_California.html
Thu 03 Mar 2016 06:21:09,LosAngeles,Sadaf Restaurant,2013,0,2,Persian,-118.486924,34.156814,"16240 Ventura BlvdEncino, CA  91436",8189818100,5.0,0,0,0,0,1,/sadaf-restaurant,Fri 04 Mar 2016 07:32:39,LosAngeles,Sadaf Restaurant,14,NotFound,NotFound,-118.48699,34.156456,"16240 Ventura Blvd, Los Angeles, CA 91436 ",8189818100,2341,4.1429,1,0,1,6,6,/Restaurant_Review-g32655-d4712548-Reviews-Sadaf_Restaurant-Los_Angeles_California.html
Thu 03 Mar 2016 06:21:37,LosAngeles,Park Grill at The InterContinental,1770,48,3,International,-118.412428,34.054086,"2151 Avenue of the StarsLos Angeles, CA  90067",3102846536,3.5,4,3,17,13,11,/park-grill-at-the-intercontinental,Fri 04 Mar 2016 04:44:54,LosAngeles,Park Grill,29,4,NotFound,-118.41246,34.05412,"2151 Avenue Of The Stars, at the InterContinental Hotel, Los Angeles, CA 90067  (Pico Blvd) ",13102771234,1167,3.8621,1,3,5,10,10,/Restaurant_Review-g32655-d477339-Reviews-Park_Grill-Los_Angeles_California.html
Thu 03 Mar 2016 06:24:36,LosAngeles,Sotto,2149,910,3,Italian,-118.397,34.055,"9575 West Pico Blvd.Los Angeles, CA  90035",3102770210,3.9594,27,77,148,314,346,/sotto,Fri 04 Mar 2016 02:05:24,LosAngeles,Sotto,76,4,Italian,-118.3976,34.055428,"9575 W Pico Blvd, Between Beverly and Beverwil Drives, Los Angeles, CA 90035  (Beverly Drive) ",13102770210,284,4.1184,2,5,9,26,34,/Restaurant_Review-g32655-d2302301-Reviews-Sotto-Los_Angeles_California.html
Thu 03 Mar 2016 06:29:18,LosAngeles,Ray’s and Stark Bar at LACMA,1906,1122,2,Mediterranean,-118.357816,34.062207,"5905 Wilshire Blvd.Los Angeles, CA  90036",3238576180,4.0161,38,90,196,289,508,/rays-and-stark-bar-at-lacma,Fri 04 Mar 2016 05:05:09,LosAngeles,Ray's & Stark Bar,100,4,Mediterranean,-118.35859,34.06333,"5905 Wilshire Blvd, Los Angeles, CA 90036-4504  (Fairfax) ",13238576180,1162,3.97,5,11,11,28,45,/Restaurant_Review-g32655-d2058338-Reviews-Ray_s_Stark_Bar-Los_Angeles_California.html
Thu 03 Mar 2016 06:34:47,LosAngeles,Mastro's Steakhouse - Beverly Hills,1457,3146,4,Steakhouse,-118.399079,34.068786,"246 N. Canon DriveBeverly Hills, CA  90210",3108888782,4.2801,83,165,354,734,1816,/mastros-ocean-club-beverly-hills,Fri 25 Mar 2016 18:32:57,BHills,Mastro's Steakhouse,759,4,American,-118.39882,34.06883,"246 N Canon Dr, Beverly Hills, CA 90210-5302  (Wilshire Blvd) ",3108888782,5,4.3294,25,30,79,161,464,/Restaurant_Review-g32070-d348038-Reviews-Mastro_s_Steakhouse-Beverly_Hills_California.html
Thu 03 Mar 2016 06:35:21,LosAngeles,Ancora Cucina Italiana,80,144,2,Italian,-118.561515,34.172847,"19647 Ventura BlvdTarzana, CA  91356",8188818411,4.2431,1,9,13,52,69,/ancora-cucina-italiana,Fri 04 Mar 2016 07:24:34,LosAngeles,Ancora Cucina Italiana,11,NotFound,Italian,-118.56156,34.172855,"19647 Ventura Blvd, Los Angeles, CA 91356 ",8188818411,800,4.7273,0,0,1,1,9,/Restaurant_Review-g32655-d5082374-Reviews-Ancora_Cucina_Italiana-Los_Angeles_California.html
Thu 03 Mar 2016 06:36:33,LosAngeles,Mas Malo,1453,453,2,Mexican,-118.25594,34.047007,"515 W 7th Street 1st FloorLos Angeles, CA  90014",2139854332,3.6167,21,65,103,143,122,/mas-malo,Fri 04 Mar 2016 06:43:05,LosAngeles,Mas Malo,67,2,Mexican,-118.255875,34.04704,"515 W 7th Street Ground Floor, Los Angeles, CA 90014  (Olive & Grand) ",2139854332,677,3.9254,0,5,14,29,19,/Restaurant_Review-g32655-d2005151-Reviews-Mas_Malo-Los_Angeles_California.html
Thu 03 Mar 2016 06:40:41,LosAngeles,Enzo & Angela The Italian Restaurant,787,107,2,Italian,-118.46137,34.049041,"11701 Wilshire BlvdLos Angeles, CA  90025",3104773880,4.2336,1,7,17,23,59,/enzo-and-angela-the-italian-restaurant-brentwood,Fri 04 Mar 2016 05:59:37,LosAngeles,Enzo & Angela,34,3,Italian,-118.46099,34.04937,"11701 Wilshire Blvd, Los Angeles, CA 90025  (S. Barrington Ave.) ",3104773880,2359,3.8824,2,2,9,6,15,/Restaurant_Review-g32655-d788229-Reviews-Enzo_Angela-Los_Angeles_California.html
Thu 03 Mar 2016 06:41:25,LosAngeles,Bedford & Burns,198,240,3,ContemporaryAmerican,-118.404806,34.067509,"369 N. Bedford Dr.Beverly Hills, CA  90210",3102738585,4.0917,6,14,35,82,103,/bedford-and-burns,Fri 25 Mar 2016 18:33:36,BHills,Bedford and Burns,36,4,American,-118.40509,34.06755,"369 North Bedford Drive, Beverly Hills, CA 90210 (Formerly Colors on Bedford) (Wilshire) ",3102738585,55,4.1667,0,1,6,15,14,/Restaurant_Review-g32070-d4398029-Reviews-Bedford_and_Burns-Beverly_Hills_California.html
Thu 03 Mar 2016 06:43:10,LosAngeles,On Sunset at Luxe Sunset Boulevard Hotel,1676,258,3,Californian,-118.46865,34.07262,"11461 Sunset BlvdLos Angeles, CA  90049",3106917584,3.9496,11,32,30,71,114,/on-sunset-at-luxe-sunset-boulevard-hotel,Fri 04 Mar 2016 04:40:45,LosAngeles,On Sunset @ Luxe Hotel Sunset Blvd,63,4,French,-118.4686,34.072613,"11461 Sunset Blvd, Los Angeles, CA 90049 ",3106917584,405,4.2698,2,2,5,22,32,/Restaurant_Review-g32655-d1315941-Reviews-On_Sunset_Luxe_Hotel_Sunset_Blvd-Los_Angeles_California.html
Thu 03 Mar 2016 06:45:26,LosAngeles,Cafe Bizou - Pasadena,387,1148,2,ContemporaryFrench,-118.148932,34.147456,"91 N. Raymond Ave.Pasadena, CA  91103",6267929923,3.8793,45,113,183,406,405,/cafe-bizou-pasadena,Fri 25 Mar 2016 18:42:26,Pasadena,Cafe Bizou,149,2,French,-118.14907,34.14744,"91 N Raymond Ave, Pasadena, CA 91103-3919  (Holly Street) ",6267929923,22,3.9195,6,11,30,44,58,/Restaurant_Review-g32859-d359041-Reviews-Cafe_Bizou-Pasadena_California.html
Thu 03 Mar 2016 06:50:26,LosAngeles,Culina,604,771,2,Italian,-118.38953,34.073552,"300 South Doheny DriveLos Angeles, CA  90048",3108604000,4.2824,15,46,81,194,436,/culina-modern-italian,Fri 04 Mar 2016 03:30:47,LosAngeles,Culina,188,3,Italian,-118.38959,34.07297,"300 South Doheny Drive, Four Seasons Hotel Los Angeles at Beverly Hills, Los Angeles, CA 90048  (Burton Way) ",13108604000,65,4.4149,7,4,14,42,121,/Restaurant_Review-g32655-d1759683-Reviews-Culina-Los_Angeles_California.html
Thu 03 Mar 2016 06:59:12,LosAngeles,Gladstone's Long Beach,929,979,2,Seafood,-118.19291,33.762686,"330 South Pine AvenueLong Beach, CA  90802",5624328588,3.8082,35,113,190,309,333,/gladstones-long-beach,Sat 26 Mar 2016 09:29:38,LongBeach,Gladstone's Long Beach,439,4,American,-118.193306,33.76198,"330 South Pine Avenue, Long Beach, CA 90802  (Shoreline Drive & Pine Avenue) ",5624328588,25,3.8451,27,27,87,144,154,/Restaurant_Review-g32648-d1370888-Reviews-Gladstone_s_Long_Beach-Long_Beach_California.html
Thu 03 Mar 2016 07:06:02,LosAngeles,Cedar Room by Westside Tavern,476,8,2,Californian,-118.428944,34.039635,"10850 W Pico BlvdLos Angeles, CA  90064",3104701539,4.125,1,0,1,1,5,/cedar-room-by-westside-tavern,Fri 04 Mar 2016 11:42:49,LosAngeles,Westside Tavern,94,3,American,-118.42883,34.039726,"10850 W. Pico Blvd., Los Angeles, CA 90064  (Westwood Blvd) ",3104701539,437,4.2021,4,1,9,38,42,/Restaurant_Review-g32655-d1729160-Reviews-Westside_Tavern-Los_Angeles_California.html
Thu 03 Mar 2016 07:11:14,LosAngeles,Tempura Endo,2295,5,4,Japanese,-118.409065,34.067613,"9777 Santa Monica BlvdBeverly Hills, CA  90210",3102742201,5.0,0,0,0,0,5,/tempura-endo,Fri 25 Mar 2016 18:38:18,BHills,Tempura Endo,1,NotFound,NotFound,-118.408905,34.067635,"9777 S Santa Monica Blvd, Beverly Hills, CA 90210 ",3102742201,118,5.0,0,0,0,0,1,/Restaurant_Review-g32070-d10034007-Reviews-Tempura_Endo-Beverly_Hills_California.html
Thu 03 Mar 2016 07:13:06,LosAngeles,Bottega Romana,314,80,2,Italian,-118.38708,33.819473,"215 Ave IRedondo Beach, CA  90277",3105408777,4.1875,3,4,12,17,44,/bottega-romana,Sat 26 Mar 2016 08:30:59,Redondo,Bottega Romana,20,NotFound,Italian,-118.38706,33.819427,"215 Ave I, Redondo Beach, CA 90277 ",13105408777,86,4.4,0,2,0,6,12,/Restaurant_Review-g32954-d7342873-Reviews-Bottega_Romana-Redondo_Beach_California.html
Thu 03 Mar 2016 07:15:17,LosAngeles,Amalfi Ristorante & Bar,67,413,2,Italian,-118.344031,34.074691,"143 North La BreaLos Angeles, CA  90036",3239382504,3.8692,15,24,82,171,121,/amalfi-ristorante-and-bar,Thu 03 Mar 2016 11:33:15,LosAngeles,Amalfi Restaurant and Bar,23,3,Italian,-118.3443,34.074802,"143 N La Brea Ave, Los Angeles, CA 90036  (between Beverly Bl. & First St.) ",3239382504,2302,4.1304,1,0,2,12,8,/Restaurant_Review-g32655-d364806-Reviews-Amalfi_Restaurant_and_Bar-Los_Angeles_California.html
Thu 03 Mar 2016 07:22:49,LosAngeles,Firefly - Studio City,824,141,3,ContemporaryAmerican,-118.388429,34.141269,"11720 Ventura BlvdStudio City, CA  91505",8187621833,3.9366,6,17,22,32,65,/firefly-studio-city,Fri 04 Mar 2016 04:59:55,LosAngeles,Firefly,59,3,American,-118.38843,34.14127,"11720 Ventura Blvd, Los Angeles, CA 91604-2615 ",8187621833,243,4.2542,1,1,7,23,27,/Restaurant_Review-g32655-d357571-Reviews-Firefly-Los_Angeles_California.html
Thu 03 Mar 2016 07:32:44,LosAngeles,Sonoritas Prime Tacos,2144,21,2,Mexican,-118.443308,34.0409,"2004 Sawtelle BlvdLos Angeles, CA  90025",3104449100,4.381,0,3,1,2,15,/sonoritas-prime-tacos,Thu 03 Mar 2016 02:43:46,LosAngeles,Sonoritas Prime Taco,4,NotFound,NotFound,-118.443306,34.0409,"2004 Sawtelle Blvd, Los Angeles, CA 90025 ",3104449100,2367,4.25,0,0,0,3,1,/Restaurant_Review-g32655-d8629793-Reviews-Sonoritas_Prime_Taco-Los_Angeles_California.html
Thu 03 Mar 2016 07:34:58,LosAngeles,Locanda Del Lago,1334,389,2,Italian,-118.4983,34.0164,"231 Arizona Ave.Santa Monica, CA  90401",3104513525,3.7069,16,38,105,115,115,/locanda-del-lago,Fri 25 Mar 2016 19:03:16,SantaMonica,Locanda del Lago,233,3,Italian,-118.49792,34.017025,"231 Arizona Ave, Santa Monica, CA 90401-1203  (Third St. Promenade) ",3104513525,82,3.7425,14,22,44,83,70,/Restaurant_Review-g33052-d350225-Reviews-Locanda_del_Lago-Santa_Monica_California.html
Thu 03 Mar 2016 07:40:01,LosAngeles,The Backhouse - Koreatown,142,12,2,Japanese,-118.298589,34.063417,"3500 W. 6th StreetSuite 301Los Angeles, CA  90017",2137399205,4.1667,0,1,0,7,4,/the-backhouse-koreatown,Thu 03 Mar 2016 13:15:08,LosAngeles,Touhmi,NotFound,NotFound,NotFound,-118.29859,34.063416,"3500 W 6th St, Los Angeles, CA 90020 ",2133681388,8044,NotFound,NotFound,NotFound,NotFound,NotFound,NotFound,/Restaurant_Review-g32655-d4887171-Reviews-Touhmi-Los_Angeles_California.html
Thu 03 Mar 2016 07:41:27,LosAngeles,Magic Lamp Grill,1397,77,2,Mediterranean,-118.136302,33.760713,"5020 East 2nd St.Long Beach, CA  90803",5629873080,4.1818,3,3,9,24,38,/magic-lamp-grill,Sat 26 Mar 2016 09:32:45,LongBeach,Magic Lamp,42,NotFound,Mediterranean,-118.13644,33.76088,"5020 E Second St, Long Beach, CA 90803 ",5629873080,166,4.0476,2,2,4,18,16,/Restaurant_Review-g32648-d2355813-Reviews-Magic_Lamp-Long_Beach_California.html
Thu 03 Mar 2016 07:48:08,LosAngeles,Musso & Frank Grill,1583,13,2,Steakhouse,-118.335408,34.10183,"6667 Hollywood BlvdLos Angeles, CA  90028",3234677788,4.1538,0,1,2,4,6,/musso-and-frank-grill,Thu 03 Mar 2016 08:57:21,LosAngeles,Musso & Frank Grill,505,3,American,-118.33539,34.10179,"6667 Hollywood Blvd, Los Angeles, CA 90028-6292 ",3234677788,11,4.247,9,27,50,164,256,/Restaurant_Review-g32655-d514194-Reviews-Musso_Frank_Grill-Los_Angeles_California.html
Thu 03 Mar 2016 07:48:32,LosAngeles,SmithHouse,2124,128,2,American,-118.423588,34.058231,"10351 Santa Monica BlvdLos Angeles, CA  90067",3104324360,3.3125,12,26,27,36,27,/smithhouse,Fri 04 Mar 2016 00:51:03,LosAngeles,Smith House,24,NotFound,Pub,-118.42359,34.05823,"10351 Santa Monica Blvd., Los Angeles, CA 90025  (Beverly Glen) ",3102828870,4540,3.625,3,1,5,8,7,/Restaurant_Review-g32655-d982921-Reviews-Smith_House-Los_Angeles_California.html
Thu 03 Mar 2016 07:56:22,LosAngeles,Ford's Filling Station - The JW Marriott Los Angeles at L.A. LIVE,853,75,2,American,-118.265428,34.045318,"900 W Olympic BlvdLos Angeles, CA  90015",2137658630,3.6974,6,4,20,23,23,/fords-filling-station-the-jw-marriott-los-angeles-at-la-live,Fri 04 Mar 2016 05:46:01,LosAngeles,Fords Filling Station,113,3,American,-118.266525,34.04513,"900 W Olympic Blvd, Los Angeles, CA 90015 ",2137658630,1066,3.8319,6,7,22,43,35,/Restaurant_Review-g32655-d1792008-Reviews-Fords_Filling_Station-Los_Angeles_California.html
Thu 03 Mar 2016 07:56:53,LosAngeles,Via Veneto,2410,148,4,Italian,-118.479812,33.99843,"3009 Main StSanta Monica, CA  90405",3103991843,4.175,11,4,22,32,91,/via-veneto-santa-monica,Fri 25 Mar 2016 18:45:55,SantaMonica,Via Veneto,103,3,Italian,-118.47979,33.998554,"3009 Main St, Santa Monica, CA 90405-5317  (Pier Ave. & Marine St.) ",3103991843,135,3.9612,11,8,10,19,55,/Restaurant_Review-g33052-d350195-Reviews-Via_Veneto-Santa_Monica_California.html
Thu 03 Mar 2016 07:57:20,LosAngeles,Local Table,1333,77,2,ContemporaryAmerican,-118.261086,34.0475,"800 S. FigueroaLos Angeles, CA  90017",2134882654,3.7,2,12,16,28,22,/local-table,Fri 04 Mar 2016 07:37:10,LosAngeles,Local Table,29,2,American,-118.26113,34.047523,"800 S Figueroa St, Ste 103, Los Angeles, CA 90017 ",12134882654,509,4.3448,1,1,1,10,16,/Restaurant_Review-g32655-d6614071-Reviews-Local_Table-Los_Angeles_California.html
Thu 03 Mar 2016 08:07:13,LosAngeles,Cafe Gratitude - Venice,399,181,2,Vegetarian/Vegan,-118.47331,33.997981,"512 Rose Ave.Venice, CA  90291",4242318000,4.035,3,9,43,68,77,/cafe-gratitude-venice,Thu 03 Mar 2016 14:09:06,LosAngeles,Cafe Gratitude,186,3,NotFound,-118.47366,33.9983,"512 Rose Ave, Los Angeles, CA  (5th Street) ",0014242318000,38,4.4839,2,6,15,40,123,/Restaurant_Review-g32655-d3458135-Reviews-Cafe_Gratitude-Los_Angeles_California.html
Thu 03 Mar 2016 08:09:07,LosAngeles,Moreton Fig,1568,262,2,ContemporaryAmerican,-118.285478,34.020001,"3607 Trousdale Park Way, Ronald Tutor Campus Center at USCLos Angeles, CA  90089",2138213441,3.874,11,32,42,71,106,/moreton-fig,Thu 03 Mar 2016 18:12:31,LosAngeles,Moreton Fig,13,3,American,-118.285995,34.01985,"3607 Trousdale Park Way, Ronald Tutor Campus Center at USC, Los Angeles, CA 90089  (Figueroa & Exposition) ",2138213441,1337,3.5385,2,2,1,3,5,/Restaurant_Review-g32655-d1973415-Reviews-Moreton_Fig-Los_Angeles_California.html
Thu 03 Mar 2016 08:12:02,LosAngeles,Cafe Gratitude - Larchmont,398,243,2,Vegetarian/Vegan,-118.323896,34.082841,"639 N. Larchmont Blvd.Los Angeles, CA  90004",3235806383,4.3918,0,7,24,80,134,/cafe-gratitude-larchmont,Thu 03 Mar 2016 17:10:46,LosAngeles,Cafe Gratitude,166,3,Vegan,-118.324066,34.082806,"639 N Larchmont Blvd, Los Angeles, CA 90004-1310  (Melrose) ",3235806383,77,4.4337,3,5,14,39,105,/Restaurant_Review-g32655-d2629080-Reviews-Cafe_Gratitude-Los_Angeles_California.html
Thu 03 Mar 2016 08:12:23,LosAngeles,Wokcano - West Hollywood,2478,25,2,Pan-Asian,-118.364954,34.097743,"8000 West Sunset Blvd, Suite A110West Hollywood, CA  90046",3234509037,3.88,0,2,4,14,5,/wokcano-west-hollywood,Fri 04 Mar 2016 09:03:32,LosAngeles,Wokcano,10,NotFound,Chinese,-118.3652,34.097496,"8000 W Sunset Blvd, Los Angeles, CA 90046 ",3234509037,1646,3.9,0,1,3,2,4,/Restaurant_Review-g32655-d7689965-Reviews-Wokcano-Los_Angeles_California.html
Thu 03 Mar 2016 08:14:32,LosAngeles,Pecorino Restaurant,1788,557,3,Italian,-118.461685,34.05361,"11604 San Vicente Blvd.Los Angeles, CA  90049",3105713800,4.2258,20,36,45,154,303,/pecorino-restaurant,Fri 04 Mar 2016 07:00:02,LosAngeles,Pecorino,41,4,Italian,-118.461945,34.0535,"11604 San Vicente Blvd, Los Angeles, CA 90049  (Barrington & Wilshire) ",3105713800,663,4.2927,2,1,6,6,26,/Restaurant_Review-g32655-d832890-Reviews-Pecorino-Los_Angeles_California.html
Thu 03 Mar 2016 08:17:42,LosAngeles,Buca di Beppo - Pasadena,354,583,2,Italian,-118.151673,34.144244,"80 West Green StreetPasadena, CA  91105",6267927272,3.87,30,62,102,168,238,/buca-di-beppo-pasadena,Fri 25 Mar 2016 19:02:34,Pasadena,Buca di Beppo,74,2,Vegetarian,-118.15218,34.144306,"80 West Green Street, Pasadena, CA 91105  (Delacey) ",16267927272,108,3.473,5,10,22,19,18,/Restaurant_Review-g32859-d343358-Reviews-Buca_di_Beppo-Pasadena_California.html
Thu 03 Mar 2016 08:21:37,LosAngeles,Cicada,541,661,4,Italian,-118.25472,34.047593,"617 S. Olive St.Los Angeles, CA  90014",2134889488,4.071,13,66,98,169,316,/cicada-los-angeles,Thu 03 Mar 2016 08:07:08,LosAngeles,Cicada Restaurant,52,4,Italian,-118.25481,34.047787,"617 S Olive St, Ste 100, Los Angeles, CA 90014-1646  (Between 7th & 6th) ",2134889488,958,4.1154,2,3,7,15,25,/Restaurant_Review-g32655-d364771-Reviews-Cicada_Restaurant-Los_Angeles_California.html
Thu 03 Mar 2016 08:24:46,LosAngeles,Wolfgang's Steakhouse - Beverly Hills,2484,673,3,Steakhouse,-118.401708,34.071453,"445 N. Canon DriveBeverly Hills, CA  90210",3103850640,3.7905,31,85,127,181,249,/wolfgangs-steakhouse,Fri 25 Mar 2016 18:46:15,BHills,Wolfgang's Steakhouse,83,4,American,-118.40176,34.071278,"445 N. Canon Dr., Beverly Hills, CA ",3103850640,58,3.8675,5,7,13,27,31,/Restaurant_Review-g32070-d3636502-Reviews-Wolfgang_s_Steakhouse-Beverly_Hills_California.html
Thu 03 Mar 2016 08:28:22,LosAngeles,The Little Door - Santa Monica,1317,222,3,French,-118.490966,34.047186,"246 26th StreetSanta Monica, CA  90402",3103108064,4.2703,6,7,26,65,118,/the-little-door-santa-monica,Fri 25 Mar 2016 18:37:52,SantaMonica,The Little Door,27,4,Mediterranean,-118.490944,34.04725,"246 26th St, Santa Monica, CA 90402 ",13103108064,108,4.2963,1,1,3,6,16,/Restaurant_Review-g33052-d7035527-Reviews-The_Little_Door-Santa_Monica_California.html
Thu 03 Mar 2016 08:32:06,LosAngeles,BLD,273,869,2,ContemporaryAmerican,-118.352245,34.076155,"7450 Beverly BlvdLos Angeles, CA  90036",3239309744,3.8989,25,59,168,345,273,/bld,Thu 03 Mar 2016 14:45:16,LosAngeles,BLD,118,2,American,-118.3524,34.075966,"7450 Beverly Blvd, Los Angeles, CA 90036  (Vista Street) ",3239309744,291,4.0085,0,10,18,51,39,/Restaurant_Review-g32655-d878142-Reviews-BLD-Los_Angeles_California.html
Thu 03 Mar 2016 08:33:35,LosAngeles,Malo,1411,486,2,Mexican,-118.283401,34.095165,"4326 W Sunset BlvdLos Angeles, CA  90029",3236641011,3.4519,32,76,138,173,101,/malo,Fri 04 Mar 2016 03:42:52,LosAngeles,Malo,44,3,Mexican,-118.283516,34.09523,"4326 Sunset Blvd, Los Angeles, CA 90027  (1/2 blk. East of Fountain Ave) ",3236641011,1048,3.7727,0,6,10,16,12,/Restaurant_Review-g32655-d360484-Reviews-Malo-Los_Angeles_California.html
Thu 03 Mar 2016 08:33:51,LosAngeles,Brick+Mortar (Santa Monica),335,8,3,American,-118.485002,34.003432,"2435 Main StSanta Monica, CA  90405",3104503434,3.75,1,0,2,2,3,/brick-and-mortar-santa-monica,Fri 25 Mar 2016 18:55:47,SantaMonica,Brick & Mortar,45,NotFound,American,-118.48479,34.003674,"2435 Main Street, Santa Monica, CA 90405  ",3104503434,121,4.2889,0,3,1,21,20,/Restaurant_Review-g33052-d2701727-Reviews-Brick_Mortar-Santa_Monica_California.html
Thu 03 Mar 2016 08:34:28,LosAngeles,Messhall Kitchen,1489,313,2,GastroPub,-118.287524,34.11188,"4500 Los Feliz Blvd.Los Angeles, CA  90027",3236606377,4.0764,3,22,57,98,134,/messhall-kitchen,Fri 04 Mar 2016 03:32:32,LosAngeles,MessHall,60,3,American,-118.28793,34.111668,"Los Feliz Blvd. & Hillhurst Ave., Los Angeles, CA  (Hillhurst) ",3236606377,548,3.9667,0,5,11,25,19,/Restaurant_Review-g32655-d3649044-Reviews-MessHall-Los_Angeles_California.html
Thu 03 Mar 2016 08:34:56,LosAngeles,Mr. C Beverly Hills,1578,212,3,Italian,-118.398765,34.05526,"1224 Beverwil DriveLos Angeles, CA  90035",3102266245,3.75,16,34,46,42,102,/mr-c-beverly-hills,Fri 04 Mar 2016 00:03:54,LosAngeles,Mr. C - Beverly Hills,56,4,Italian,-118.39851,34.055363,"1224 Beverwil Dr., Los Angeles, CA  (Pico Blvd) ",18773345623,257,4.3393,1,3,8,8,36,/Restaurant_Review-g32655-d2553192-Reviews-Mr_C_Beverly_Hills-Los_Angeles_California.html
Thu 03 Mar 2016 08:41:03,LosAngeles,Barrel & Ashes,183,333,2,Barbecue,-118.389,34.142,"11801 Ventura Blvd.Studio City, CA  91604",8186238883,3.961,2,34,65,106,126,/barrel-and-ashes,Fri 04 Mar 2016 09:35:48,LosAngeles,Barrel & Ashes,47,NotFound,American,-118.38919,34.14218,"11801 Ventura Blvd, Los Angeles, CA 91604 ",8186328883,297,4.0638,1,3,7,17,19,/Restaurant_Review-g32655-d7384403-Reviews-Barrel_Ashes-Los_Angeles_California.html
Thu 03 Mar 2016 08:42:52,LosAngeles,Zinqué - West Hollywood,2546,69,2,French,-118.38266,34.081263,"8684 MelroseWest Hollywood, CA  90069",4242843930,3.9,0,14,8,30,28,/zinque-west-hollywood,Fri 25 Mar 2016 18:38:01,WHolly,Zinque,22,NotFound,Wine Bar,-118.38267,34.081326,"8684 Melrose Ave, West Hollywood, CA 90048 ",4242843930,100,4.0,2,0,4,6,10,/Restaurant_Review-g33252-d6734309-Reviews-Zinque-West_Hollywood_California.html
Thu 03 Mar 2016 08:45:04,LosAngeles,Arashi Sushi,94,171,2,Sushi,-118.26353,34.042397,"1111 S. Hope St. #100Los Angeles, CA  90015",2137491900,4.25,1,7,19,66,79,/arashi-sushi,Fri 04 Mar 2016 09:58:57,LosAngeles,Arashi Sushi,25,3,Japanese,-118.26371,34.042095,"1111 S. Hope St. #100, Los Angeles, CA  (11th) ",NotFound,878,4.32,0,0,3,11,11,/Restaurant_Review-g32655-d1995282-Reviews-Arashi_Sushi-Los_Angeles_California.html
Thu 03 Mar 2016 08:52:38,LosAngeles,Cliff's Edge,556,615,2,ContemporaryAmerican,-118.277728,34.090196,"3626 W. Sunset Blvd.Los Angeles, CA  90026",3236666116,4.0688,17,41,99,207,276,/cliffs-edge,Fri 04 Mar 2016 07:22:20,LosAngeles,Cliff's Edge,104,2,Italian,-118.27779,34.090088,"3626 west sunset blvd, Los Angeles, CA 90026  (Edgecliff) ",3236666116,331,4.1635,3,3,10,46,42,/Restaurant_Review-g32655-d798811-Reviews-Cliff_s_Edge-Los_Angeles_California.html
Thu 03 Mar 2016 08:53:34,LosAngeles,Il Pastaio,1082,522,2,Italian,-118.401,34.071,"400 North Canon DriveBeverly Hills, CA  90212",3102055444,4.1989,6,30,62,181,244,/il-pastaio,Fri 25 Mar 2016 18:33:13,BHills,Il Pastaio,450,3,Italian,-118.40077,34.070866,"400 N Canon Dr, Beverly Hills, CA 90210-4820  (Brighton Way) ",3102055444,2,4.38,14,9,34,128,265,/Restaurant_Review-g32070-d348077-Reviews-Il_Pastaio-Beverly_Hills_California.html
Thu 03 Mar 2016 08:59:50,LosAngeles,Engine Co. No. 28,783,1249,2,American,-118.259,34.05,"644 S. Figueroa St.Los Angeles, CA  90017",2136246996,3.7086,47,163,246,484,340,/engine-co-no-28,Thu 03 Mar 2016 02:17:06,LosAngeles,Engine Co. No. 28,140,3,American,-118.25925,34.049595,"644 S Figueroa St, Los Angeles, CA 90017  (7th and Wilshire) ",2136246996,532,3.6714,4,13,37,57,29,/Restaurant_Review-g32655-d364785-Reviews-Engine_Co_No_28-Los_Angeles_California.html
Thu 03 Mar 2016 09:14:34,LosAngeles,Yamashiro,2502,4102,3,Californian,-118.3423,34.1064,"1999 North Sycamore Ave.Hollywood, CA  90068",3234665125,4.1248,104,271,604,1169,1972,/yamashiro,Thu 03 Mar 2016 21:59:22,LosAngeles,Yamashiro,538,4,Japanese,-118.342125,34.10558,"1999 N Sycamore Ave, Los Angeles, CA 90068  (Franklin Avenue) ",13234665125,45,4.1617,12,24,78,175,249,/Restaurant_Review-g32655-d364899-Reviews-Yamashiro-Los_Angeles_California.html
Thu 03 Mar 2016 09:18:20,LosAngeles,94th Aero Squadron - Van Nuys,30,124,2,American,-118.488521,34.217698,"16320 Raymer AveVan Nuys, CA  91406",8189947437,3.7125,9,15,39,47,50,/94th-aero-squadron-van-nuys,Thu 03 Mar 2016 15:37:10,LosAngeles,94th Aero Squadron,55,3,International,-118.48883,34.217808,"16320 Raymer Ave, Los Angeles, CA 91406  (Woodley and Roscoe) ",8189947437,551,4.0179,1,3,9,24,19,/Restaurant_Review-g32655-d514514-Reviews-94th_Aero_Squadron-Los_Angeles_California.html
Thu 03 Mar 2016 09:21:53,LosAngeles,Bashan,187,224,2,ContemporaryAmerican,-118.227563,34.202022,"3459 N Verdugo RdGlendale, CA  91208",8185411532,4.4267,0,6,27,57,135,/bashan,Sat 26 Mar 2016 08:16:03,Glendale,Bashan Restaurant,42,4,French,-118.22767,34.201668,"3459 North Verdugo Road, Glendale, CA 91208 ",8185411532,13,4.4286,0,1,3,15,23,/Restaurant_Review-g32431-d1898910-Reviews-Bashan_Restaurant-Glendale_California.html
Thu 03 Mar 2016 09:27:53,LosAngeles,Il Fornaio - Beverly Hills,1075,652,2,Italian,-118.400541,34.068549,"301 N.Beverly DriveBeverly Hills, CA  90210",3105508330,3.9338,20,69,113,212,266,/il-fornaio-beverly-hills,Fri 25 Mar 2016 18:38:46,BHills,Il Fornaio,318,3,Italian,-118.40085,34.068478,"301 N Beverly Dr, Beverly Hills, CA 90210  (Dayton Way) ",3105508330,12,4.1195,8,10,45,128,127,/Restaurant_Review-g32070-d348053-Reviews-Il_Fornaio-Beverly_Hills_California.html
Thu 03 Mar 2016 09:29:07,LosAngeles,niXon Bar + Lounge,1621,2,2,Californian,-118.264292,34.044365,"1020 S. FigueroaLos Angeles, CA  90015",2137437600,1.0,2,0,0,0,0,/nixon-bar-and-lounge,Fri 04 Mar 2016 01:52:52,LosAngeles,Stafford + Mathis Kitchen,7,NotFound,NotFound,-118.264244,34.044178,"1020 S Figueroa St, Los Angeles, CA 90015 ",2137437600,4895,3.4286,1,0,2,3,1,/Restaurant_Review-g32655-d6378612-Reviews-Stafford_Mathis_Kitchen-Los_Angeles_California.html
Thu 03 Mar 2016 09:34:43,LosAngeles,Tuning Fork,2378,13,2,ContemporaryAmerican,-118.394321,34.144594,"12051 Ventura PlaceStudio City, CA  91604",8186230734,3.7692,0,3,2,3,5,/tuning-fork,Fri 04 Mar 2016 04:44:22,LosAngeles,Tuning Fork Gastropub,25,NotFound,American,-118.39438,34.14444,"12051 Ventura Place, Studio City, Los Angeles, CA 91604 ",8186230734,614,4.28,0,0,5,8,12,/Restaurant_Review-g32655-d4199669-Reviews-Tuning_Fork_Gastropub-Los_Angeles_California.html
Thu 03 Mar 2016 09:35:50,LosAngeles,Buca di Beppo - Santa Monica,356,349,2,Italian,-118.496365,34.014303,"1442 2nd StreetSanta Monica, CA  90401",3105872782,3.914,15,27,71,96,140,/buca-di-beppo-santa-monica,Fri 25 Mar 2016 18:40:02,SantaMonica,Buca di Beppo,214,2,Vegetarian,-118.49625,34.013744,"1442 2nd St, Santa Monica, CA 90401-2302  (Broadway & Santa Monica) ",13105872782,42,3.972,7,10,40,82,75,/Restaurant_Review-g33052-d468540-Reviews-Buca_di_Beppo-Santa_Monica_California.html
Thu 03 Mar 2016 09:38:05,LosAngeles,Pizzeria Il Fico,1831,68,2,Italian,-118.383473,34.073164,"310 S. Robertson Blvd.Los Angeles, CA  90048",3102713426,4.5294,0,2,4,18,44,/pizzeria-il-fico,Thu 03 Mar 2016 11:36:39,LosAngeles,Pizzeria Il Fico,54,NotFound,Italian,-118.38348,34.073166,"310 S Robertson Blvd, Los Angeles, CA 90048-3806 ",3102713426,406,4.4259,2,1,1,18,32,/Restaurant_Review-g32655-d2288722-Reviews-Pizzeria_Il_Fico-Los_Angeles_California.html
Thu 03 Mar 2016 09:39:07,LosAngeles,38 Degrees Ale House and Grill,16,58,2,ContemporaryAmerican,-118.127927,34.094357,"100 W. Main StreetAlhambra, CA  91801",6262822038,4.1724,0,4,9,18,27,/38-degrees-ale-house-and-grill,Sat 26 Mar 2016 08:22:21,Alhambra,38 Degrees Ale House & Grill,21,4,American,-118.12795,34.09442,"100 W Main Street, Alhambra, CA  (1st Street) ",6262822038,11,4.0952,0,0,4,11,6,/Restaurant_Review-g29078-d1547866-Reviews-38_Degrees_Ale_House_Grill-Alhambra_California.html
Thu 03 Mar 2016 09:46:25,LosAngeles,chi SPACCA,521,246,4,ContemporaryItalian,-118.338544,34.083433,"6610 Melrose Ave.Los Angeles, CA  90038",3232971133,4.4818,6,11,20,31,179,/chi-spacca,Fri 04 Mar 2016 11:03:53,LosAngeles,Chi Spacca,38,4,Italian,-118.33896,34.08347,"6601 Melrose Avenue, Los Angeles, CA  (Citrus & Highland) ",3232971133,343,4.3684,0,2,5,8,23,/Restaurant_Review-g32655-d3974648-Reviews-Chi_Spacca-Los_Angeles_California.html
Thu 03 Mar 2016 09:48:27,LosAngeles,Prosecco Trattoria,1868,555,2,Italian,-118.352241,34.151896,"10144 Riverside DriveToluca Lake, CA  91602",8185050930,4.5018,4,15,43,132,366,/prosecco-trattoria,Fri 04 Mar 2016 03:11:39,LosAngeles,Prosecco Trattoria,50,3,Italian,-118.35173,34.1522,"10144 Riverside Drive, Los Angeles, CA 91602  (Forman) ",8185050930,619,4.36,2,0,6,12,30,/Restaurant_Review-g32655-d378523-Reviews-Prosecco_Trattoria-Los_Angeles_California.html
Thu 03 Mar 2016 09:58:31,LosAngeles,Bel Air Bar + Grill,200,230,3,American,-118.468998,34.077282,"662 N Sepulveda BlvdLos Angeles, CA  90049",3104405544,4.0917,0,20,33,92,95,/bel-air-bar-and-grill-los-angeles,Fri 04 Mar 2016 08:48:21,LosAngeles,Bel-Air Bar & Grill,30,3,International,-118.46877,34.077362,"662 N Sepulveda Blvd, At Corner of Moraga, Near Getty Museum, Los Angeles, CA 90049-2108  (Moraga Drive) ",13104405544,773,4.2667,0,3,2,9,16,/Restaurant_Review-g32655-d350145-Reviews-Bel_Air_Bar_Grill-Los_Angeles_California.html
Thu 03 Mar 2016 09:58:51,LosAngeles,Status Kuo,2186,12,2,ContemporaryAmerican,-118.431112,34.004747,"3809 Grand View Blvd.Los Angeles, CA  90066",3105747610,3.8333,0,1,3,5,3,/status-kuo,Thu 03 Mar 2016 21:47:49,LosAngeles,Status Kuo,2,NotFound,NotFound,-118.43115,34.00444,"3809 Grand View Blvd, Los Angeles, CA 90066 ",13105747610,3063,4.5,0,0,0,1,1,/Restaurant_Review-g32655-d7342506-Reviews-Status_Kuo-Los_Angeles_California.html
Thu 03 Mar 2016 09:59:21,LosAngeles,Sprazzo Cucina Italiana,2166,121,2,Italian,-118.442121,34.055303,"1389 Westwood Blvd.Los Angeles, CA  90024",3104793337,4.4711,2,0,12,32,75,/sprazzo-cucina-italiana,Fri 04 Mar 2016 10:04:47,LosAngeles,Sprazzo,27,3,Italian,-118.44209,34.055374,"1389 Westwood Blvd, Los Angeles, CA 90024-4940  (Wilkins Ave.) ",3104793337,1172,4.4444,0,0,3,9,15,/Restaurant_Review-g32655-d348148-Reviews-Sprazzo-Los_Angeles_California.html
Thu 03 Mar 2016 09:59:38,LosAngeles,Orlando’s Pizzeria Birreria,1701,8,2,Italian,-118.375733,33.83853,"1000 Torrance BlvdUnit ARedondo Beach, CA  90277",3107929300,4.0,0,1,1,3,3,/orlandos-pizzeria-birreria,Sat 26 Mar 2016 08:43:56,Redondo,Orlando's,11,NotFound,Italian,-118.375786,33.838596,"1000 Torrance Boulevard, Cross Street Prospect, Redondo Beach, CA 90277 ",13107929300,54,4.4545,0,0,2,2,7,/Restaurant_Review-g32954-d7812067-Reviews-Orlando_s-Redondo_Beach_California.html
Thu 03 Mar 2016 10:04:37,LosAngeles,The Six - WLA,2117,63,2,American,-118.423977,34.041966,"10668 W. Pico BoulevardLos Angeles, CA  90064",3108376662,3.8254,4,3,12,25,19,/the-six-wla,Thu 03 Mar 2016 15:10:20,LosAngeles,The Six,23,2,American,-118.42407,34.042095,"10668 W. Pico Blvd, Los Angeles, CA 90064  (Overland) ",3108376662,1601,4.0435,0,0,4,14,5,/Restaurant_Review-g32655-d1974729-Reviews-The_Six-Los_Angeles_California.html
Thu 03 Mar 2016 10:08:47,LosAngeles,Simbal Restaurant,2106,50,3,SoutheastAsian,-118.240716,34.049468,"319 E 2nd Street #202Los Angeles, CA  90012",2136260244,4.1961,0,5,9,8,29,/simbal-restaurant,Thu 03 Mar 2016 13:25:13,LosAngeles,Simbal,5,NotFound,NotFound,-118.240715,34.04947,"319 East 2nd Street, Suite 202, Los Angeles, CA 90012 ",2136260244,1394,4.6,0,0,1,0,4,/Restaurant_Review-g32655-d8610452-Reviews-Simbal-Los_Angeles_California.html
Thu 03 Mar 2016 10:16:07,LosAngeles,Steingarten LA,2189,241,2,GastroPub,-118.420418,34.044719,"10543 W. Pico BlvdLos Angeles, CA  90064",3104410441,3.7261,13,30,38,89,71,/steingarten-la,Thu 03 Mar 2016 14:01:57,LosAngeles,Steingarten,14,3,American,-118.4204,34.044693,"10543 W Pico Blvd, Los Angeles, CA 90064-2319  (Beverly Glen and Overland GROUP RESERVATION 3109015989) ",3104410441,4133,3.7143,0,3,2,5,4,/Restaurant_Review-g32655-d2416141-Reviews-Steingarten-Los_Angeles_California.html
Thu 03 Mar 2016 10:17:45,LosAngeles,Malbec - Toluca Lake,1408,169,2,Argentinean,-118.352453,34.152513,"10151 Riverside DrToluca Lake, CA  91602",8187624860,4.3294,1,4,25,48,92,/malbec-toluca-lake,Thu 03 Mar 2016 03:53:36,LosAngeles,Malbec Argentinean Bistro,40,3,Argentinean,-118.35242,34.152534,"10151 Riverside Drive, Los Angeles, CA 91602  (Forman) ",818.762.4860,236,4.4,0,1,3,15,21,/Restaurant_Review-g32655-d2285484-Reviews-Malbec_Argentinean_Bistro-Los_Angeles_California.html
Thu 03 Mar 2016 10:19:08,LosAngeles,Plate 38,1836,78,2,ContemporaryAmerican,-118.101409,34.14623,"2361 E Colorado BlvdPasadena, CA  91107",6267937100,3.7848,4,6,18,26,25,/plate-38,Fri 25 Mar 2016 18:41:11,Pasadena,Plate 38,63,NotFound,American,-118.101425,34.146336,"2361 E Colorado Blvd, Pasadena, CA 91107-4263 ",6267937100,47,4.2063,2,2,10,16,33,/Restaurant_Review-g32859-d2190551-Reviews-Plate_38-Pasadena_California.html
Thu 03 Mar 2016 10:22:15,LosAngeles,Blue Ribbon Sushi Bar & Grill,282,32,3,Japanese,-118.356355,34.073192,"186 The Grove DriveWest Hollywood, CA  90036",3233529300,4.125,0,2,6,10,14,/blue-ribbon-sushi-bar-and-grill,Thu 03 Mar 2016 16:55:07,LosAngeles,Blue Ribbon Sushi Bar & Grill,13,3,Japanese,-118.3581,34.07246,"189 the Grove Dr, Los Angeles, CA 90046 ",13233529300,999,4.0,1,0,1,7,4,/Restaurant_Review-g32655-d8520161-Reviews-Blue_Ribbon_Sushi_Bar_Grill-Los_Angeles_California.html
Thu 03 Mar 2016 10:24:00,LosAngeles,Il Forno Caldo,1080,298,2,Italian,-118.407459,34.068475,"9705 South Santa Monica Blvd.Beverly Hills, CA  90210",3107770040,3.98,10,19,42,125,104,/il-forno-caldo,Fri 25 Mar 2016 18:38:57,BHills,Il Forno Caldo,30,3,Italian,-118.40749,34.068462,"9705 South Santa Monica Blvd., Beverly Hills, CA 90210  (Roxbury) ",3107770040,86,4.1667,2,2,2,7,17,/Restaurant_Review-g32070-d1370284-Reviews-Il_Forno_Caldo-Beverly_Hills_California.html
Thu 03 Mar 2016 10:27:38,LosAngeles,Roku,1968,30,3,Japanese,-118.392513,34.090892,"9201 W Sunset BlvdWest Hollywood, CA  90069",3102782060,3.8065,1,4,6,9,11,/roku,Fri 25 Mar 2016 18:41:11,WHolly,Roku Sunset,3,NotFound,NotFound,-118.3925,34.09087,"9201 West Sunset Boulevard, West Hollywood, CA 90069 ",NotFound,126,3.6667,1,0,0,0,2,/Restaurant_Review-g33252-d9597826-Reviews-Roku_Sunset-West_Hollywood_California.html
Thu 03 Mar 2016 10:28:40,LosAngeles,Black Angus Steakhouse - Northridge,261,689,2,Steakhouse,-118.5629,34.23674,"9145 Corbin Ave.Northridge, CA  91324",8187011600,4.0942,17,55,85,222,311,/black-angus-steakhouse-northridge,Thu 03 Mar 2016 11:13:57,LosAngeles,Black Angus Steakhouse,26,3,American,-118.56281,34.23674,"9145 Corbin Ave, Los Angeles, CA 91324  (Nordhoff) ",8187011600,1092,3.6154,1,4,4,12,5,/Restaurant_Review-g32655-d1972449-Reviews-Black_Angus_Steakhouse-Los_Angeles_California.html
Thu 03 Mar 2016 10:37:43,LosAngeles,Simon's Café,2109,55,2,Moroccan,-118.466937,34.152201,"4515 Sepulveda blvd.Sherman Oaks, CA  91403",8187836698,4.4643,2,0,3,16,35,/simons-cafe,Thu 03 Mar 2016 04:37:13,LosAngeles,Simon's Cafe,14,2,American,-118.46678,34.15213,"4515 Sepulveda Blvd, Los Angeles, CA 91403-4047  (Dickens) ",8187836698,1295,4.4286,1,0,0,4,9,/Restaurant_Review-g32655-d1014574-Reviews-Simon_s_Cafe-Los_Angeles_California.html
Thu 03 Mar 2016 10:44:48,LosAngeles,Pace,1735,402,3,Italian,-118.369673,34.108992,"2100 Laurel Canyon Blvd.West Hollywood, CA  90046",3236548583,4.2537,1,25,53,115,208,/pace,Thu 03 Mar 2016 08:10:44,LosAngeles,Pace,78,2,Italian,-118.369644,34.10903,"2100 Laurel Canyon Blvd, Los Angeles, CA 90046-2004  (Kirkwood) ",3236548583,457,4.2152,2,2,13,22,40,/Restaurant_Review-g32655-d350490-Reviews-Pace-Los_Angeles_California.html
Thu 03 Mar 2016 10:50:25,LosAngeles,Madera Kitchen,1393,74,2,ContemporaryAmerican,-118.330533,34.104936,"1835 N Cahuenga BlvdLos Angeles, CA  90028",2132613687,3.85,4,8,16,20,32,/madera-kitchen,Thu 03 Mar 2016 04:05:04,LosAngeles,Madera Kitchen & Bar,8,NotFound,American,-118.330536,34.104958,"1835 North Cahuenga Boulevard, Los Angeles, CA 90028 ",12132613687,1345,4.375,0,0,1,3,4,/Restaurant_Review-g32655-d6599775-Reviews-Madera_Kitchen_Bar-Los_Angeles_California.html
Thu 03 Mar 2016 10:58:23,LosAngeles,Go China,933,3,2,Chinese,-118.132019,34.14835,"136 N Lake AvePasadena, CA  91101",6267933888,4.3333,0,0,0,2,1,/go-china,Fri 25 Mar 2016 18:55:47,Pasadena,Go China,4,NotFound,Chinese,-118.13202,34.14835,"136 N Lake Ave, Pasadena, CA 91101-1836 ",6267933888,161,4.5,0,0,0,2,2,/Restaurant_Review-g32859-d6537667-Reviews-Go_China-Pasadena_California.html
Thu 03 Mar 2016 11:01:19,LosAngeles,La Cabana Restaurant,1218,9,2,Mexican,-118.46814,34.000859,"738 Rose AveVenice, CA  90291",3103927973,3.8889,0,1,2,3,3,/la-cabana-restaurant,Fri 04 Mar 2016 00:49:09,LosAngeles,La Cabana Restaurant,53,2,Mexican,-118.4683,34.00111,"738 Rose Ave, Los Angeles, CA 90291 ",3103926161,827,3.8868,2,3,10,22,16,/Restaurant_Review-g32655-d350114-Reviews-La_Cabana_Restaurant-Los_Angeles_California.html
Thu 03 Mar 2016 11:01:40,LosAngeles,Bugis Street Brasserie,366,16,2,Chinese,-118.253121,34.049405,"501 S. Olive StreetLos Angeles, CA  90071",2136241100,3.75,0,4,0,8,4,/bugis-street-brasserie,Thu 03 Mar 2016 16:43:06,LosAngeles,Bugis Street Brasserie,37,2,Chinese,-118.25296,34.049335,"501 S. Olive St., Millennium Biltmore Hotel, Los Angeles, CA 90013-1006  (5th Steet) ",12136241100,952,3.7838,1,4,3,23,6,/Restaurant_Review-g32655-d491663-Reviews-Bugis_Street_Brasserie-Los_Angeles_California.html
Thu 03 Mar 2016 11:03:16,LosAngeles,Willie Jane,2467,311,2,Southern,-118.471486,33.992244,"1031 Abbot Kinney BlvdVenice, CA  90291",3103922425,3.9031,11,27,65,96,121,/willie-jane,Fri 04 Mar 2016 07:39:58,LosAngeles,Willie Jane,27,NotFound,American,-118.471466,33.992283,"1031 Abbot Kinney Boulevard, Los Angeles, CA 90291 ",13103922425,890,4.1481,1,1,3,10,12,/Restaurant_Review-g32655-d5103357-Reviews-Willie_Jane-Los_Angeles_California.html
Thu 03 Mar 2016 11:15:40,LosAngeles,Beso,216,2627,2,Steakhouse,-118.32832,34.10119,"6350 Hollywood BlvdHollywood, CA  90028",3234677991,3.6932,150,338,528,780,844,/beso-hollywood,Thu 03 Mar 2016 06:12:39,LosAngeles,Beso,155,4,Spanish,-118.32836,34.101433,"6350 Hollywood Blvd, Los Angeles, CA 90028  (Corner of Ivar St.) ",3234677991,1191,3.5097,15,17,37,46,40,/Restaurant_Review-g32655-d1071191-Reviews-Beso-Los_Angeles_California.html
Thu 03 Mar 2016 11:15:56,LosAngeles,Rose Cafe - Restaurant,1992,20,2,American,-118.4771,33.996238,"220 Rose AvenueVenice, CA  90291",3103990711,3.65,0,4,2,11,3,/rose-cafe-restaurant,Fri 04 Mar 2016 02:05:56,LosAngeles,Rose Cafe Restaurant,125,2,American,-118.477104,33.99624,"220 Rose Ave, Los Angeles, CA 90291-2568 ",13103990711,404,4.0317,2,10,16,52,46,/Restaurant_Review-g32655-d550479-Reviews-Rose_Cafe_Restaurant-Los_Angeles_California.html
Thu 03 Mar 2016 11:25:24,LosAngeles,Le Petit Paris,1295,109,2,French,-118.248849,34.048191,"418/420 South Spring StreetLos Angeles, CA  90013",2132174445,4.0333,6,4,19,42,49,/le-petit-paris,Thu 03 Mar 2016 20:09:40,LosAngeles,Le Petit Paris Los Angeles,19,NotFound,French,-118.24869,34.04824,"418 S Spring Street, Los Angeles, CA 90013 ",2132174445,749,4.15,1,1,2,6,10,/Restaurant_Review-g32655-d8666709-Reviews-Le_Petit_Paris_Los_Angeles-Los_Angeles_California.html
Thu 03 Mar 2016 11:31:06,LosAngeles,Hard Rock Cafe - California Universal City (Hollywood),1008,13,2,American,-118.352791,34.136033,"1000 Universal Studios Blvd#99Universal City, CA  91608",8186227625,4.4615,0,0,3,1,9,/hard-rock-cafe-universal-city-hollywood,Thu 03 Mar 2016 05:02:38,LosAngeles,Hard Rock Cafe Hollywood at Universal CityWalk,543,2,American,-118.35189,34.136395,"1000 Universal Studios Boulevard, Suite 99, Los Angeles, CA 91608 ",18186227625,22,4.1252,16,20,79,193,235,/Restaurant_Review-g32655-d364937-Reviews-Hard_Rock_Cafe_Hollywood_at_Universal_CityWalk-Los_Angeles_California.html
Thu 03 Mar 2016 11:35:47,LosAngeles,The Morrison,1572,122,2,American,-118.268664,34.123586,"3179 Los Feliz BlvdLos Angeles, CA  90039",3236671839,4.5,2,2,11,26,83,/the-morrison,Fri 04 Mar 2016 09:31:59,LosAngeles,The Morrison,32,3,American,-118.268745,34.123817,"3179 Los Feliz Blvd, Los Angeles, CA 90039 ",3236671839,408,4.303,1,0,1,17,14,/Restaurant_Review-g32655-d3755439-Reviews-The_Morrison-Los_Angeles_California.html
Thu 03 Mar 2016 11:38:12,LosAngeles,Boca at The Conga Room,297,74,2,ContemporaryAmerican,-118.263989,34.044988,"800 W. Olympic Blvd., Suites A160 & A260Los Angeles, CA  90015",2137450162,3.1486,8,17,17,20,12,/boca-at-the-conga-room,Thu 03 Mar 2016 16:44:19,LosAngeles,Boca at The Conga Room,11,3,Spanish,-118.264,34.045,"800 W. Olympic Blvd., Suites A160 & A260, Los Angeles, CA 90015  (Figueroa & Olympic) ",8669526642,4385,3.2727,2,0,4,3,2,/Restaurant_Review-g32655-d1308476-Reviews-Boca_at_The_Conga_Room-Los_Angeles_California.html
Thu 03 Mar 2016 11:40:56,LosAngeles,Via Alloro,2409,304,2,Italian,-118.399524,34.06924,"301 N. Canon Dr.Beverly Hills, CA  90210",3102752900,3.9145,12,33,40,103,116,/via-alloro,Fri 25 Mar 2016 18:43:08,BHills,Via Alloro,118,3,Italian,-118.3997,34.06925,"301 N. Canon Dr., Beverly Hills, CA 90210 ",3102752900,44,4.0085,4,7,17,46,44,/Restaurant_Review-g32070-d1370275-Reviews-Via_Alloro-Beverly_Hills_California.html
Thu 03 Mar 2016 11:42:55,LosAngeles,Mercado - Santa Monica,1487,525,2,Mexican,-118.494839,34.015995,"1416 4th St.Santa Monica, CA  90401",3105267121,4.2089,10,26,71,183,270,/mercado-santa-monica,Fri 25 Mar 2016 19:04:17,SantaMonica,Mercado,163,3,Mexican,-118.494835,34.01595,"1416 4th St., Santa Monica, CA  (Santa Moinca) ",3105267121,21,4.4601,2,1,10,57,93,/Restaurant_Review-g33052-d3246269-Reviews-Mercado-Santa_Monica_California.html
Thu 03 Mar 2016 11:46:43,LosAngeles,Chinois on Main,531,1107,4,Chinese,-118.482462,34.000912,"2709 Main StreetHillSanta Monica, CA  90405",3103929025,4.0821,33,86,172,294,535,/chinois-on-main,Fri 25 Mar 2016 18:50:27,SantaMonica,Chinois on Main,154,4,Chinese,-118.48213,34.00085,"2709 Main St, Santa Monica, CA 90405-4007 ",3103929025,36,4.3182,4,6,14,43,87,/Restaurant_Review-g33052-d350136-Reviews-Chinois_on_Main-Santa_Monica_California.html
Thu 03 Mar 2016 11:50:51,LosAngeles,Palomino - Los Angeles,1755,1015,3,ContemporaryAmerican,-118.44301,34.059128,"10877 Wilshire Blvd. #150Los Angeles, CA  90024",3102081960,3.9154,29,88,176,396,351,/palomino-los-angeles,Thu 03 Mar 2016 02:46:49,LosAngeles,Palomino - Los Angeles,93,3,American,-118.44324,34.0599,"10877 Wilshire Blvd. #150, Los Angeles, CA 90024  (corner of Glendon & Lindbrook) ",3102081960,326,3.9892,2,5,12,47,27,/Restaurant_Review-g32655-d1316656-Reviews-Palomino_Los_Angeles-Los_Angeles_California.html
Thu 03 Mar 2016 11:52:19,LosAngeles,Phil Trani's,1805,118,2,Continental,-118.188922,33.820293,"3490 Long Beach Blvd.Long Beach, CA  90807",5624263668,4.0083,5,8,15,45,47,/phil-tranis,Sat 26 Mar 2016 09:18:43,LongBeach,Phil Trani's Fine Food and Spirits,19,3,Italian,-118.18906,33.820316,"3490 Long Beach Boulevard, Long Beach, CA 90807  (Wardlow) ",562.426.3668,324,3.8421,2,1,4,3,9,/Restaurant_Review-g32648-d540901-Reviews-Phil_Trani_s_Fine_Food_and_Spirits-Long_Beach_California.html
Thu 03 Mar 2016 11:54:30,LosAngeles,Hinoki & The Bird,1032,28,4,ContemporaryAmerican,-118.414647,34.056386,"10 Century DriveLos Angeles, CA  90067",3105521200,3.8966,1,2,5,12,9,/hinoki-and-the-bird,Thu 03 Mar 2016 11:46:27,LosAngeles,Hinoki & the Bird,130,NotFound,Asian,-118.41521,34.056343,"10 Century Drive, Los Angeles, CA 90067 ",13105521200,102,4.2462,3,8,14,34,71,/Restaurant_Review-g32655-d3929666-Reviews-Hinoki_the_Bird-Los_Angeles_California.html
Thu 03 Mar 2016 12:01:13,LosAngeles,Anejo Cantina & Grill,82,33,2,Mexican,-118.455038,34.152316,"14755 Ventura Blvd.Sherman Oaks, CA  91403",8183803180,3.5588,5,3,8,4,14,/anejo-cantina-and-grill,Thu 03 Mar 2016 11:58:14,LosAngeles,Athenea Bar and Grill,1,NotFound,NotFound,-118.45504,34.152317,"14755 Ventura Blvd, Los Angeles, CA 91403 ",8183803180,1913,5.0,0,0,0,0,1,/Restaurant_Review-g32655-d4256920-Reviews-Athenea_Bar_and_Grill-Los_Angeles_California.html
Thu 03 Mar 2016 12:01:38,LosAngeles,Butchers and Barbers,375,75,2,American,-118.332242,34.102011,"6531 Hollywood BlvdHollywood, CA  90028",3234611464,3.75,0,8,28,20,24,/butchers-and-barbers,Thu 03 Mar 2016 06:31:59,LosAngeles,Butchers & Barbers,5,NotFound,NotFound,-118.332245,34.102013,"6531 Hollywood Boulevard, Los Angeles, CA 90028 ",3234611464,3322,3.6,0,0,2,3,0,/Restaurant_Review-g32655-d8800849-Reviews-Butchers_Barbers-Los_Angeles_California.html
Thu 03 Mar 2016 12:04:21,LosAngeles,RockSugar Pan Asian Kitchen,1962,2057,3,Asian,-118.420801,34.05949,"10250 Santa Monica Blvd.Los Angeles, CA  90067",3105529988,4.1702,40,118,277,658,987,/rocksugar-pan-asian-kitchen,Fri 04 Mar 2016 08:44:23,LosAngeles,RockSugar Pan Asian Kitchen,299,4,Chinese,-118.420105,34.059666,"10250 Santa Monica Blvd, Ste 654, Los Angeles, CA 90067-6609 ",13105529988,39,4.3311,2,10,34,94,159,/Restaurant_Review-g32655-d1081885-Reviews-RockSugar_Pan_Asian_Kitchen-Los_Angeles_California.html
Thu 03 Mar 2016 12:06:27,LosAngeles,n/naka,1587,302,4,Japanese,-118.412271,34.02508,"3455 Overland Ave.Los Angeles, CA  90034",3108366252,4.8344,2,2,11,17,288,/n-naka,Fri 04 Mar 2016 06:19:22,LosAngeles,n/naka,63,NotFound,Japanese,-118.4122,34.02515,"3455 S. Overland Avenue, Los Angeles, CA 90034 ",3108366252,86,4.7937,0,0,3,7,53,/Restaurant_Review-g32655-d3701882-Reviews-N_naka-Los_Angeles_California.html
Thu 03 Mar 2016 12:08:26,LosAngeles,New Port Seafood Beverly Hills,1602,54,3,Chinese,-118.375962,34.066767,"50 N. La Cienaga Blvd Suite #130Beverly Hills, CA  90211",3108550088,3.7778,2,8,7,20,17,/new-port-seafood-beverly-hills,Fri 25 Mar 2016 18:34:05,BHills,Newport Seafood,8,NotFound,Seafood,-118.37595,34.06691,"50 N la Cienega Blvd, #130, Beverly Hills, CA 90211 ",3108550088,97,4.25,0,1,0,3,4,/Restaurant_Review-g32070-d7288992-Reviews-Newport_Seafood-Beverly_Hills_California.html
Thu 03 Mar 2016 12:10:45,LosAngeles,MUD HEN TAVERN,1581,360,2,GastroPub,-118.338313,34.084686,"742 N Highland AveLos Angeles, CA  90038",3232030500,4.1472,11,29,38,100,182,/mud-hen-tavern,Fri 04 Mar 2016 08:30:32,LosAngeles,Mud Hen Tavern,35,NotFound,American,-118.33834,34.08469,"742 N Highland Ave, Los Angeles, CA 90038 ",3232030500,599,4.1667,1,0,7,12,16,/Restaurant_Review-g32655-d5820218-Reviews-Mud_Hen_Tavern-Los_Angeles_California.html
Thu 03 Mar 2016 12:15:10,LosAngeles,AOC,92,1562,2,Californian,-118.381668,34.073559,"8700 West 3rd StreetLos Angeles, CA  90048",3108599859,4.1029,44,108,227,449,736,/aoc-los-angeles,Fri 04 Mar 2016 06:47:35,LosAngeles,A.O.C.,272,3,Wine Bar,-118.38197,34.07341,"8700 West 3rd. Street, Los Angeles, CA 90048-4307  (George Burns Drive) ",3108599859,49,4.3199,1,11,26,96,138,/Restaurant_Review-g32655-d350445-Reviews-A_O_C-Los_Angeles_California.html
Thu 03 Mar 2016 12:19:05,LosAngeles,Le Petit Greek,1294,147,2,Greek,-118.323995,34.073873,"127 N Larchmont BlvdLos Angeles, CA  90004-3704",3234645160,4.2562,2,5,22,52,79,/le-petit-greek,Thu 03 Mar 2016 16:52:31,LosAngeles,Le Petit Greek,52,3,Mediterranean,-118.32389,34.073875,"127 N Larchmont Blvd, Los Angeles, CA 90004-3704  (W 1st Street) ",3234645160,439,4.5192,0,1,2,18,31,/Restaurant_Review-g32655-d364843-Reviews-Le_Petit_Greek-Los_Angeles_California.html
Thu 03 Mar 2016 12:22:04,LosAngeles,Larsen's Steakhouse,1273,1004,3,Steakhouse,-118.484107,34.156934,"16101 Ventura Blvd., Suite 270Encino, CA  91436",8183869500,4.1325,29,84,126,251,514,/larsens-steakhouse,Fri 04 Mar 2016 00:39:44,LosAngeles,Larsen's Steakhouse,30,4,American,-118.48421,34.15644,"16101 Ventura Blvd., Suite 270, Los Angeles, CA 91436  (Ventura Blvd. & Woodley) ",8183869500,1104,3.9,2,0,6,13,9,/Restaurant_Review-g32655-d1308438-Reviews-Larsen_s_Steakhouse-Los_Angeles_California.html
Thu 03 Mar 2016 12:22:18,LosAngeles,The Social List,2133,4,2,European,-118.166478,33.77192,"2105 E 4th StLong Beach, CA  90814",5624335478,3.25,0,1,1,2,0,/the-social-list,Sat 26 Mar 2016 09:30:27,LongBeach,Social List,20,NotFound,Pub,-118.16648,33.77192,"2105 E. 4th Street, Long Beach, CA ",5624335478,70,4.45,0,0,2,7,11,/Restaurant_Review-g32648-d6931554-Reviews-Social_List-Long_Beach_California.html
Thu 03 Mar 2016 12:28:12,LosAngeles,Barlo Kitchen & Cocktails,178,9,2,ContemporaryAmerican,-118.47252,33.986927,"1697 Pacific Ave.Venice, CA  90291",3104521111,3.8889,0,1,1,5,2,/barlo-kitchen-and-cocktails,Fri 04 Mar 2016 02:46:43,LosAngeles,Barlo Kitchen + Cocktails,55,NotFound,American,-118.47252,33.986927,"Hotel Erwin, Venice Beach, 1697 Pacific Avenue, Los Angeles, CA (Formerly Hash)",NotFound,210,4.4182,0,0,6,20,29,/Restaurant_Review-g32655-d2422610-Reviews-Barlo_Kitchen_Cocktails-Los_Angeles_California.html
Thu 03 Mar 2016 12:28:46,LosAngeles,The District by Hannah An,647,164,2,Vietnamese,-118.382324,34.073562,"8722 W 3rd StreetLos Angeles, CA  90048",3102782345,4.0542,7,14,28,31,86,/the-district-by-hannah-an,Thu 03 Mar 2016 04:18:02,LosAngeles,The District by Hannah An,33,NotFound,Asian,-118.3825,34.07342,"8722 West Third Street, Los Angeles, CA 90048 ",3102782345,519,4.0606,2,2,2,13,14,/Restaurant_Review-g32655-d7753706-Reviews-The_District_by_Hannah_An-Los_Angeles_California.html
Thu 03 Mar 2016 12:33:10,LosAngeles,Philippe Chow - Beverly Hills,1806,61,3,Chinese,-118.378912,34.06572,"8620 Wilshire Blvd.Beverly Hills, CA  90211",3102893500,2.65,18,24,18,8,12,/philippe-chow-beverly-hills,Fri 25 Mar 2016 18:38:05,BHills,Philippe Chow,4,NotFound,Contemporary,-118.37894,34.06565,"8620 Wilshire Blvd, Beverly Hills, CA 90211  ",13102893500,193,2.5,1,0,3,0,0,/Restaurant_Review-g32070-d6848065-Reviews-Philippe_Chow-Beverly_Hills_California.html
Thu 03 Mar 2016 12:37:50,LosAngeles,10e,3,73,2,Mediterranean,-118.259027,34.049109,"811 West 7th StreetLos Angeles, CA  90017",2134881096,3.75,8,6,12,26,28,/10e,Thu 03 Mar 2016 10:54:07,LosAngeles,10e Restaurant,15,NotFound,Mediterranean,-118.25897,34.049183,"811 West 7th Street, Los Angeles, CA 90017 ",2134881096,584,4.5333,0,1,1,2,11,/Restaurant_Review-g32655-d7282642-Reviews-10e_Restaurant-Los_Angeles_California.html
Thu 03 Mar 2016 12:42:10,LosAngeles,Guido's - West LA,973,408,3,Italian,-118.461567,34.041311,"11980 Santa Monica Blvd.West Los Angeles, CA  90025",3108206649,4.1364,8,24,53,170,185,/guidos-west-la,Thu 03 Mar 2016 10:17:25,LosAngeles,Guido's,1,NotFound,NotFound,-118.46172,34.040752,"11980 Santa Monica Blvd, West Los Angeles, Los Angeles, CA 90025 ",3108206649,3941,4.0,0,0,0,1,0,/Restaurant_Review-g32655-d9789978-Reviews-Guido_s-Los_Angeles_California.html
Thu 03 Mar 2016 12:45:14,LosAngeles,Central Park Restaurant,482,127,2,American,-118.15044,34.141853,"219 South Fair Oaks AvenuePasadena, CA  91105",6264494499,4.3312,1,4,16,59,80,/central-park-restaurant,Fri 25 Mar 2016 19:04:31,Pasadena,Central Park Restaurant,63,NotFound,American,-118.1507,34.14195,"219 South Fair Oaks Avenue, Pasadena, CA 91105 ",6264494499,64,4.0476,2,2,4,38,17,/Restaurant_Review-g32859-d3164308-Reviews-Central_Park_Restaurant-Pasadena_California.html
Thu 03 Mar 2016 12:47:03,LosAngeles,Carousel Restaurant,448,272,2,MiddleEastern,-118.254595,34.150218,"304 N Brand BlvdGlendale, CA  91203",8182467775,4.225,9,8,33,91,139,/carousel-restaurant,Sat 26 Mar 2016 08:41:30,Glendale,Carousel Restaurant,87,3,Lebanese,-118.2547,34.150215,"304 N Brand Blvd, Glendale, CA 91203-2304 ",8182467775,7,4.2184,2,5,9,27,44,/Restaurant_Review-g32431-d502582-Reviews-Carousel_Restaurant-Glendale_California.html
Thu 03 Mar 2016 12:53:42,LosAngeles,Centanni - Burbank,480,62,2,Italian,-118.317323,34.174018,"117 N. Victory BlvdBurbank, CA  91502",8185614643,4.325,0,8,4,22,46,/centanni-burbank,Fri 25 Mar 2016 19:02:10,Burbank,Centanni Trattoria,15,NotFound,Italian,-118.31732,34.17402,"117 North Victory Blvd, Burbank, CA 91502 ",8185614643,23,4.4,0,0,0,9,6,/Restaurant_Review-g32123-d8000807-Reviews-Centanni_Trattoria-Burbank_California.html
Thu 03 Mar 2016 12:59:11,LosAngeles,Bar Marmont,167,44,3,GastroPub,-118.367032,34.097991,"8171 Sunset Blvd.West Hollywood, CA  90046",3236500575,3.775,8,10,10,16,36,/bar-marmont,Fri 25 Mar 2016 18:43:24,WHolly,Bar Marmont,115,3,International,-118.36742,34.09795,"8171 Sunset Blvd., West Hollywood, CA 90046 ",3236500575,67,4.087,6,3,17,38,51,/Restaurant_Review-g33252-d509430-Reviews-Bar_Marmont-West_Hollywood_California.html
Thu 03 Mar 2016 13:02:38,LosAngeles,Pastina Trattoria,1776,158,2,Italian,-118.430656,34.043137,"2260 Westwood BlvdLos Angeles, CA  90064-2018",3104414655,4.0625,2,14,20,60,64,/pastina-trattoria,Thu 03 Mar 2016 19:20:00,LosAngeles,Pastina,24,3,Italian,-118.43075,34.04308,"2260 Westwood Blvd, Los Angeles, CA 90064  (W Olympic Blvd) ",3104414655,501,4.5417,0,1,0,8,15,/Restaurant_Review-g32655-d348116-Reviews-Pastina-Los_Angeles_California.html
Thu 03 Mar 2016 13:28:54,LosAngeles,State Social House,2184,26,2,GastroPub,-118.382622,34.091107,"8782 Sunset Boulevard WestHollywood, CA  90069",3106578100,3.3846,2,4,9,4,7,/state-social-house,Fri 04 Mar 2016 05:04:47,LosAngeles,State Social House,29,2,Italian,-118.38274,34.090866,"8782 Sunset Boulevard, Los Angeles, CA 90069 ",16578100,661,4.0,1,1,3,16,8,/Restaurant_Review-g32655-d5327229-Reviews-State_Social_House-Los_Angeles_California.html
Thu 03 Mar 2016 13:31:33,LosAngeles,Belcampo- Santa Monica,203,127,2,American,-118.491778,34.02409,"1026 WilshireSanta Monica, CA  90401",4247448008,3.7875,2,23,41,35,59,/belcampo-santa-monica,Fri 25 Mar 2016 18:42:46,SantaMonica,Belcampo,23,NotFound,NotFound,-118.491776,34.02409,"1026 Wilshire Boulevard, Santa Monica, CA 90401 ",4247448008,284,3.6087,1,3,6,7,6,/Restaurant_Review-g33052-d8002907-Reviews-Belcampo-Santa_Monica_California.html
Thu 03 Mar 2016 14:08:44,LosAngeles,Swiss Chef,2253,252,2,Swiss,-118.432187,34.187093,"13727 Victory BoulevardVan Nuys, CA  91401",8189041500,4.5556,3,7,11,57,174,/swiss-chef,Fri 04 Mar 2016 04:27:26,LosAngeles,Swiss Chef USA,19,3,German,-118.43221,34.186874,"13729 Victory Blvd., Los Angeles, CA 91401  (Woodman Avenue) ",8189041500‎,1062,4.6842,0,1,0,3,15,/Restaurant_Review-g32655-d2172825-Reviews-Swiss_Chef_USA-Los_Angeles_California.html
Thu 03 Mar 2016 14:21:21,LosAngeles,The Nice Guy,1608,73,2,Italian,-118.376828,34.078724,"401 N La Cienega BlvdWest Hollywood, CA  90048",3103609500,3.825,8,6,14,16,36,/the-nice-guy,Thu 03 Mar 2016 02:51:09,LosAngeles,The Nice Guy,21,NotFound,Italian,-118.37683,34.078724,"401 N la Cienega Blvd, Los Angeles, CA 90048 ",13103609500,1332,3.8571,4,0,1,6,10,/Restaurant_Review-g32655-d7127783-Reviews-The_Nice_Guy-Los_Angeles_California.html
Thu 03 Mar 2016 14:26:56,LosAngeles,Marco's Trattoria - West Hollywood,1434,139,2,Italian,-118.367165,34.090489,"8200 Santa Monica BlvdWest Hollywood, CA  90046",3236501060,3.8993,4,17,19,48,51,/marcos-trattoria-west-hollywood,Fri 25 Mar 2016 18:42:22,WHolly,Marco's,15,3,Italian,-118.367165,34.09049,"8200 Santa Monica Blvd, West Hollywood, CA 90046  (N. Havenhurst Dr.) ",3236501060,85,4.3333,0,1,1,5,8,/Restaurant_Review-g33252-d4886803-Reviews-Marco_s-West_Hollywood_California.html
Thu 03 Mar 2016 14:34:27,LosAngeles,Pink Taco - Sunset,1821,60,2,Mexican,-118.368805,34.097721,"8225 Sunset Blvd.West Hollywood, CA  90046",3233807474,3.55,14,6,12,18,30,/pink-taco-sunset,Fri 25 Mar 2016 18:49:48,WHolly,Pink Taco,96,3,Mexican,-118.3688,34.09787,"8225 Sunset Boulevard, West Hollywood, CA ",323.380.7474,25,4.1042,1,7,11,39,38,/Restaurant_Review-g33252-d3216487-Reviews-Pink_Taco-West_Hollywood_California.html
Thu 03 Mar 2016 14:35:18,LosAngeles,Loteria Grill - Santa Monica,1348,49,2,Mexican,-118.497502,34.016936,"1251 3rd Street PromenadeSanta Monica, CA  90401",3103932700,3.4898,6,6,9,14,14,/loteria-grill-santa-monica,Fri 25 Mar 2016 18:39:16,SantaMonica,Loteria Grill,90,3,Mexican,-118.49781,34.017338,"1251 3rd Street Promenade, Santa Monica, CA  (Arizona) ",3103932700,170,3.9667,4,6,8,43,29,/Restaurant_Review-g33052-d3342418-Reviews-Loteria_Grill-Santa_Monica_California.html
Thu 03 Mar 2016 14:36:06,LosAngeles,Bowery Bungalow,322,40,2,MiddleEastern,-118.283081,34.09112,"4156 Santa Monica BlvdLos Angeles, CA  90029",3236631500,4.7,0,1,1,7,31,/bowery-bungalow,Thu 03 Mar 2016 05:47:51,LosAngeles,Bowery Bungalow,6,NotFound,NotFound,-118.2831,34.09115,"4156 Santa Monica Blvd, Los Angeles, CA 90029 ",3236631500,887,5.0,0,0,0,0,6,/Restaurant_Review-g32655-d7283519-Reviews-Bowery_Bungalow-Los_Angeles_California.html
Thu 03 Mar 2016 14:37:35,LosAngeles,Hinterland,1033,34,3,ContemporaryAmerican,-118.480529,33.99927,"2917 Main St.Santa Monica, CA  90404",3103990805,4.1143,2,1,6,8,18,/hinterland,Fri 25 Mar 2016 18:58:25,SantaMonica,Hinterland,18,NotFound,American,-118.4806,33.999245,"2917 Main St, Santa Monica, CA 90405 ",13103990805,201,4.1667,1,2,1,3,11,/Restaurant_Review-g33052-d7906393-Reviews-Hinterland-Santa_Monica_California.html
Thu 03 Mar 2016 15:03:52,LosAngeles,Coyote Cantina,587,6,2,Tex-Mex,-118.389169,33.850391,"531 N Pacific Coast HwySte BRedondo Beach, CA  90277",3103761066,4.1667,0,0,2,1,3,/coyote-cantina,Sat 26 Mar 2016 08:28:25,Redondo,Coyote Cantina,49,NotFound,Mexican,-118.38917,33.85039,"531 N Pacific Coast Hwy, Redondo Beach, CA 90277-2104 ",3103761066,42,4.4898,0,0,7,11,31,/Restaurant_Review-g32954-d361009-Reviews-Coyote_Cantina-Redondo_Beach_California.html
Thu 03 Mar 2016 15:40:17,LosAngeles,En Sushi,781,15,3,Japanese,-118.455394,34.044369,"11651 Santa Monica BlvdLos Angeles, CA  90025",3104771551,3.6,2,2,1,5,5,/en-sushi-santa-monica,Fri 04 Mar 2016 08:06:48,LosAngeles,En Sushi,20,3,Sushi,-118.45529,34.04438,"11651 Santa Monica Blvd, Los Angeles, CA 90025-2931  (Barry Ave.) ",3104771551,4557,3.55,0,3,5,10,2,/Restaurant_Review-g32655-d348026-Reviews-En_Sushi-Los_Angeles_California.html
Thu 03 Mar 2016 15:43:53,LosAngeles,NM Cafe at Neiman Marcus Topanga,1623,81,2,Californian,-118.605887,34.189596,"6550 Topanga Canyon Blvd.Canoga Park, CA  91313",8183167040,4.284,1,2,15,18,45,/nm-cafe-at-neiman-marcus-topanga,Thu 03 Mar 2016 20:47:31,LosAngeles,NM Cafe,2,NotFound,NotFound,-118.60525,34.190266,"6550 Topanga Canyon Blvd, Los Angeles, CA 91303 ",8183167040,2530,4.5,0,0,0,1,1,/Restaurant_Review-g32655-d4478722-Reviews-NM_Cafe-Los_Angeles_California.html
Thu 03 Mar 2016 15:45:20,LosAngeles,Alexander's Steakhouse - Pasadena,57,98,3,Steakhouse,-118.142254,34.14745,"111 North Los Robles AvePasadena, CA  91101",6264861111,4.4343,0,6,11,16,66,/alexanders-steakhouse-pasadena,Fri 25 Mar 2016 18:41:25,Pasadena,Alexander's Steakhouse,16,NotFound,Steakhouse,-118.14214,34.147446,"111 N Los Robles Ave, Pasadena, CA 91101 ",6264861111,68,4.4375,0,0,1,7,8,/Restaurant_Review-g32859-d8511156-Reviews-Alexander_s_Steakhouse-Pasadena_California.html
Thu 03 Mar 2016 15:46:51,LosAngeles,Wilde,2465,27,3,European,-118.343998,34.068251,"320 South La Brea Ave.Los Angeles, CA  90036",3239329500,4.2963,1,1,3,6,16,/wilde,Fri 04 Mar 2016 07:49:55,LosAngeles,Wilde Wine Bar & Restaurant,1,NotFound,NotFound,-118.343864,34.06811,"320 South La Brea Ave., Los Angeles, CA 90036 ",3239329500,2004,5.0,0,0,0,0,1,/Restaurant_Review-g32655-d9854877-Reviews-Wilde_Wine_Bar_Restaurant-Los_Angeles_California.html
Thu 03 Mar 2016 15:48:27,LosAngeles,Hamburger Hamlet - Sherman Oaks,994,62,2,American,-118.449182,34.151728,"4419 Van Nuys BlvdSherman Oaks, CA  91403",8187841183,3.9365,4,5,8,20,26,/hamburger-hamlet-sherman-oaks,Thu 03 Mar 2016 13:26:47,LosAngeles,Hamburger Hamlet,36,3,American,-118.44869,34.15173,"4419 Van Nuys Bl, Los Angeles, CA 91403 ",18187841183,399,4.0556,0,2,7,14,13,/Restaurant_Review-g32655-d468671-Reviews-Hamburger_Hamlet-Los_Angeles_California.html
Thu 03 Mar 2016 15:57:43,LosAngeles,Zinqué - Venice,2545,34,2,French,-118.461963,33.988984,"600 Venice BlvdVenice, CA  90291",3104370970,4.0882,0,1,8,12,13,/zinque-venice,Fri 04 Mar 2016 07:03:21,LosAngeles,Zinque,35,3,French,-118.46196,33.988983,"600 Venice Blvd., Los Angeles, CA 90291 ",3104370970,824,3.7714,2,3,4,18,8,/Restaurant_Review-g32655-d2483684-Reviews-Zinque-Los_Angeles_California.html
Thu 03 Mar 2016 16:02:24,LosAngeles,Loteria Grill - Hollywood,1347,98,2,Mexican,-118.334416,34.101716,"6627 Hollywood BlvdHollywood, CA  90028",3234652500,3.9083,8,12,16,31,53,/loteria-grill-los-angeles,Fri 04 Mar 2016 02:25:17,LosAngeles,Loteria Grill,124,2,Mexican,-118.33445,34.101788,"6627 Hollywood Blvd, Los Angeles, CA  (Cherokee) ",3234652500,175,3.9435,2,9,18,60,35,/Restaurant_Review-g32655-d1141100-Reviews-Loteria_Grill-Los_Angeles_California.html
Thu 03 Mar 2016 16:02:57,LosAngeles,Carlitos Gardel Argentine Steakhouse,446,434,3,Argentinean,-118.363204,34.08379,"7963 Melrose Ave.Los Angeles, CA  90046",3236550891,4.5864,2,11,32,77,318,/carlitos-gardel-argentine-steakhouse,Fri 04 Mar 2016 05:46:21,LosAngeles,Carlitos Gardel,152,3,Steakhouse,-118.36319,34.083935,"7963 Melrose Ave, Los Angeles, CA 90046 ",3236550891,68,4.5987,2,3,8,28,111,/Restaurant_Review-g32655-d371845-Reviews-Carlitos_Gardel-Los_Angeles_California.html
Thu 03 Mar 2016 16:14:04,LosAngeles,Eden Burger Bar,691,106,2,Burgers,-118.236354,34.150961,"333 1/2 North Verdugo RoadGlendale, CA  91206",8185522212,4.2264,2,7,8,37,52,/eden-burger-bar,Sat 26 Mar 2016 08:42:10,Glendale,Eden Burger Bar,17,2,American,-118.23659,34.150944,"333 1/2 Verdugo Rd., Glendale, CA 91206 ",8185522212,24,4.5294,0,0,0,8,9,/Restaurant_Review-g32431-d3173710-Reviews-Eden_Burger_Bar-Glendale_California.html
Thu 03 Mar 2016 16:14:58,LosAngeles,Chelsea's Chowder House,517,520,2,Seafood,-118.190253,33.752551,"1126 Queens HighwayLong Beach, CA  90802",5624991685,3.7635,22,68,95,161,174,/chelseas-chowder-house,Sat 26 Mar 2016 09:17:54,LongBeach,Chelsea's Chowder House & Bar,195,3,Seafood,-118.18915,33.75262,"1126 Queens Highway, Long Beach, CA 90802  (Ocean) ",15624991685,32,3.8615,6,13,47,65,64,/Restaurant_Review-g32648-d1993546-Reviews-Chelsea_s_Chowder_House_Bar-Long_Beach_California.html
Thu 03 Mar 2016 16:15:55,LosAngeles,Damon's Steakhouse,612,549,2,Steakhouse,-118.255265,34.150635,"317 N. Brand Blvd.Glendale, CA  91203",8185071510,4.1054,17,38,67,185,253,/damons-steakhouse,Sat 26 Mar 2016 08:31:21,Glendale,Damon's Steak House,120,3,American,-118.25538,34.150616,"317 N Brand Blvd, Glendale, CA 91203-2303 ",8185071510,11,3.975,2,5,27,46,40,/Restaurant_Review-g32431-d364747-Reviews-Damon_s_Steak_House-Glendale_California.html
Thu 03 Mar 2016 16:28:15,LosAngeles,Lawry's The Prime Rib - Beverly Hills,1284,7168,3,PrimeRib,-118.376276,34.066601,"100 North La Cienega BlvdBeverly Hills, CA  90211",3106522827,4.4311,99,300,598,1599,4603,/lawrys-the-prime-rib-beverly-hills,Fri 25 Mar 2016 18:47:30,BHills,Lawry's the Prime Rib,453,3,American,-118.376015,34.067852,"100 N La Cienega Blvd, Beverly Hills, CA 90211  (Wilshire Blvd) ",3106522827,4,4.3554,10,16,49,106,272,/Restaurant_Review-g32070-d350100-Reviews-Lawry_s_the_Prime_Rib-Beverly_Hills_California.html
Thu 03 Mar 2016 16:30:47,LosAngeles,Genghis Cohen,905,9,2,Chinese,-118.361098,34.085066,"740 N Fairfax AveLos Angeles, CA  90046-7206",3236530640,4.1,0,0,2,5,3,/genghis-cohen,Thu 03 Mar 2016 16:25:03,LosAngeles,Genghis Cohen,65,2,Chinese,-118.36138,34.08452,"740 N. Fairfax Ave., Los Angeles, CA 90046 ",3236530640,417,3.9231,8,2,6,20,29,/Restaurant_Review-g32655-d491185-Reviews-Genghis_Cohen-Los_Angeles_California.html
Thu 03 Mar 2016 16:31:02,LosAngeles,Hugo's West Hollywood,1062,21,2,ContemporaryAmerican,-118.373089,34.090877,"8401 Santa Monica BlvdWest Hollywood, CA  90069-4209",3236543993,4.3636,0,0,3,8,11,/hugos-west-hollywood,Fri 25 Mar 2016 18:57:39,WHolly,Hugo's,168,2,Italian,-118.37303,34.09084,"8401 Santa Monica Blvd, West Hollywood, CA 90069 ",3236543993,18,4.1369,3,8,19,71,67,/Restaurant_Review-g33252-d350430-Reviews-Hugo_s-West_Hollywood_California.html
Thu 03 Mar 2016 16:34:57,LosAngeles,STK – Los Angeles,2197,90,4,Steak,-118.441103,34.06326,"930 Hilgard AvenueW HotelLos Angeles, CA  90024",3106593535,4.022,4,10,14,15,48,/stk-los-angeles-los-angeles,Thu 03 Mar 2016 15:30:01,LosAngeles,STK Los Angeles,24,4,American,-118.4409,34.06325,"930 Hilgard Avenue, W Hotel West Beverly Hills, Los Angeles, CA 90024 ",1310659353593535,931,3.875,0,4,4,7,9,/Restaurant_Review-g32655-d8424192-Reviews-STK_Los_Angeles-Los_Angeles_California.html
Thu 03 Mar 2016 16:42:05,LosAngeles,Mohawk Bend,1551,11,2,Vegetarian/Vegan,-118.26479,34.077664,"2141 West Sunset BoulevardEcho Park, CA  90026",2134832337,4.5455,0,0,0,5,6,/mohawk-bend,Thu 03 Mar 2016 20:30:03,LosAngeles,Mohawk Bend,83,2,American,-118.26475,34.0776,"2141 Sunset Boulevard, Los Angeles, CA 90026 ",2134832337,130,4.3253,0,1,4,45,33,/Restaurant_Review-g32655-d2407910-Reviews-Mohawk_Bend-Los_Angeles_California.html
Thu 03 Mar 2016 16:45:06,LosAngeles,Parkers' Lighthouse,1771,1749,2,Seafood,-118.189,33.761,"435 Shoreline Village DriveLong Beach, CA  90802",5624326500,4.1017,45,128,209,599,779,/parkers-lighthouse,Sat 26 Mar 2016 08:51:22,LongBeach,Queensview Steakhouse,50,4,Steakhouse,-118.18955,33.76012,"435 Shoreline Drive, Long Beach, CA 90802  (Pine Avenue) ",15624326500,49,4.6,1,0,4,8,37,/Restaurant_Review-g32648-d2058335-Reviews-Queensview_Steakhouse-Long_Beach_California.html
Thu 03 Mar 2016 16:50:29,LosAngeles,The Bellwether,208,125,2,ContemporaryAmerican,-118.421599,34.146647,"13251 Ventura BlvdSuite AStudio City, CA  91604",8182858184,4.3307,0,8,13,35,71,/the-bellwether,Thu 03 Mar 2016 18:41:21,LosAngeles,The Bellwether,11,NotFound,American,-118.4216,34.14665,"13251 Ventura Blvd, Suite A, Los Angeles, CA 91603 ",8182858184,768,4.3333,0,0,1,6,5,/Restaurant_Review-g32655-d8594501-Reviews-The_Bellwether-Los_Angeles_California.html
Thu 03 Mar 2016 16:51:24,LosAngeles,CAST at the Viceroy,464,590,3,ContemporaryAmerican,-118.49077,34.00802,"1819 Ocean Ave.Santa Monica, CA  90401",3102607511,3.8083,23,74,102,197,204,/cast-at-the-viceroy,Fri 25 Mar 2016 18:43:18,SantaMonica,Cast Restaurant,14,4,Mediterranean,-118.49061,34.008144,"1819 Ocean Ave, Santa Monica, CA 90401-3215 (Formerly Whist Restaurant) (Pico) ",13102607511,274,4.0,0,1,2,7,4,/Restaurant_Review-g33052-d350302-Reviews-Cast_Restaurant-Santa_Monica_California.html
Thu 03 Mar 2016 16:58:36,LosAngeles,Sur Restaurant,2215,2565,2,International,-118.385507,34.081043,"606 North Robertson Blvd.West Hollywood, CA  90069",3102892824,3.9588,122,255,419,589,1189,/sur-restaurant,Thu 03 Mar 2016 19:51:17,LosAngeles,Sur Restaurant & Grill,426,4,American,-118.38524,34.08121,"606 North Robertson Boulevard, Los Angeles, CA 90069  (Melrose Ave) ",3102892824,108,3.7249,43,29,81,126,150,/Restaurant_Review-g32655-d1013627-Reviews-Sur_Restaurant_Grill-Los_Angeles_California.html
Thu 03 Mar 2016 17:01:48,LosAngeles,Franco on Melrose,863,161,2,Italian,-118.34233,34.083721,"6919 Melrose AvenueLos Angeles, CA  90038",3239343390,4.26,5,12,22,48,113,/franco-on-melrose,Thu 03 Mar 2016 20:08:59,LosAngeles,Franco on Melrose,25,NotFound,Italian,-118.34234,34.083725,"6919 Melrose Ave, Los Angeles, CA 90038 ",3239343390,385,4.72,0,0,3,1,21,/Restaurant_Review-g32655-d4797491-Reviews-Franco_on_Melrose-Los_Angeles_California.html
Thu 03 Mar 2016 17:04:12,LosAngeles,Freds - at Barney's New York - Beverly Hills,869,175,2,American,-118.402713,34.066653,"9570 Wilshire Blvd.Barneys New YorkBeverly Hills, CA  90212",3107775877,3.87,3,23,40,65,69,/freds-at-barneys-new-york-beverly-hills,Fri 25 Mar 2016 18:32:53,BHills,Barney Greengrass,30,3,Delicatessen,-118.40267,34.066757,"9570 Wilshire Blvd, Barneys New York, Beverly Hills, CA 90212-2420  (Camden Drive) ",3107775877,189,3.5667,4,4,5,5,12,/Restaurant_Review-g32070-d348176-Reviews-Barney_Greengrass-Beverly_Hills_California.html
